[
	{
		"id": "48x76a3jq7isfsn",
		"slug": "the-tron-edinburgh-eh1-1qw",
		"name": "The Tron",
		"image": "https://media-cdn.tripadvisor.com/media/photo-s/07/94/45/56/the-tron.jpg",
		"description": null,
		"latitude": 55.949642,
		"longitude": -3.187581,
		"street": "9 Hunter Square",
		"postcode": "EH1 1QW",
		"city": "Edinburgh",
		"country": "United Kingdom",
		"phone": "+44 131 225 3784",
		"website": "http://www.thetronedinburgh.co.uk/",
		"facebook": null,
		"twitter": null,
		"instagram": null,
		"opening_hours": [
			{
				"day": "Sunday",
				"hours": "10:00 AM - 1:00 AM"
			},
			{
				"day": "Monday",
				"hours": "10:00 AM - 1:00 AM"
			},
			{
				"day": "Tuesday",
				"hours": "10:00 AM - 1:00 AM"
			},
			{
				"day": "Wednesday",
				"hours": "10:00 AM - 1:00 AM"
			},
			{
				"day": "Thursday",
				"hours": "10:00 AM - 1:00 AM"
			},
			{
				"day": "Friday",
				"hours": "10:00 AM - 1:00 AM"
			},
			{
				"day": "Saturday",
				"hours": "10:00 AM - 1:00 AM"
			}
		],
		"externalIds": {
			"foursquare": "4b05881df964a52098b222e3",
			"safegraph": "22x-222@4hx-2yt-75z",
			"tripadvisor": "1894961"
		},
		"paying": false,
		"mapboxId": "dXJuOm1ieHBvaTplYjU5OWI5YS01MjgzLTQyMDgtYjA5NS04MTI5OGYwZjFmYzc",
		"userId": null,
		"createdAt": "2024-04-18T16:45:34.000Z"
	},
	{
		"id": "9p2q2p8kakcgt4u",
		"slug": "the-treehouse-edinburgh-eh3-9lj",
		"name": "The Treehouse",
		"image": "https://media-cdn.tripadvisor.com/media/photo-s/1b/30/d6/9e/look-out-for-our-sign.jpg",
		"description": null,
		"latitude": 55.940851,
		"longitude": -3.203414,
		"street": "44 Leven Street",
		"postcode": "EH3 9LJ",
		"city": "Edinburgh",
		"country": "United Kingdom",
		"phone": "+44 131 656 0513",
		"website": "http://www.facebook.com/thetreehouseedinburgh",
		"facebook": null,
		"twitter": null,
		"instagram": null,
		"opening_hours": [
			{
				"day": "Sunday",
				"hours": "8:00 AM - 5:00 PM"
			},
			{
				"day": "Monday",
				"hours": "8:00 AM - 5:00 PM"
			},
			{
				"day": "Tuesday",
				"hours": "8:00 AM - 5:00 PM"
			},
			{
				"day": "Wednesday",
				"hours": "8:00 AM - 5:00 PM"
			},
			{
				"day": "Thursday",
				"hours": "8:00 AM - 5:00 PM"
			},
			{
				"day": "Friday",
				"hours": "8:00 AM - 5:00 PM"
			},
			{
				"day": "Saturday",
				"hours": "9:00 AM - 5:00 PM"
			}
		],
		"externalIds": {
			"safegraph": "zzy-222@4hx-2ym-rff",
			"tripadvisor": "1821260",
			"foursquare": "4cc14fa75684a35dc4e1b70d"
		},
		"paying": false,
		"mapboxId": "dXJuOm1ieHBvaTowZGQ4MjBiYy1hZGMzLTQzYWYtOTllYy1hNzBmYmZkOTk2ZGY",
		"userId": null,
		"createdAt": "2024-04-18T16:45:35.000Z"
	},
	{
		"id": "o73k5av1d8gevfh",
		"slug": "the-roseate-edinburgh-edinburgh-eh12-5jq",
		"name": "The Roseate Edinburgh",
		"image": "https://media-cdn.tripadvisor.com/media/photo-s/17/90/1c/5d/the-dunstane-houses.jpg",
		"description": null,
		"latitude": 55.946007,
		"longitude": -3.229091,
		"street": "4 West Coates",
		"postcode": "EH12 5JQ",
		"city": "Edinburgh",
		"country": "United Kingdom",
		"phone": "+44 131 337 6169",
		"website": "https://www.roseatehotels.com/edinburgh/theroseate/hotel/",
		"facebook": null,
		"twitter": null,
		"instagram": null,
		"opening_hours": null,
		"externalIds": {
			"safegraph": "226-222@4hx-2yj-q75",
			"tripadvisor": "191461"
		},
		"paying": false,
		"mapboxId": "dXJuOm1ieHBvaTphYmYzYmY4NC05OTFmLTQ1NDAtODRlNS0wMGZjNjljOGFmNWM",
		"userId": null,
		"createdAt": "2024-04-18T16:45:36.000Z"
	},
	{
		"id": "9lcm29pv11a1llx",
		"slug": "the-salvation-army-edinburgh-granton-corps-edinburgh-eh5-1bz",
		"name": "The Salvation Army Edinburgh Granton Corps",
		"image": null,
		"description": null,
		"latitude": 55.978262,
		"longitude": -3.223847,
		"street": "36 Wardieburn Drive",
		"postcode": "EH5 1BZ",
		"city": "Edinburgh",
		"country": "United Kingdom",
		"phone": "+441315516820",
		"website": "https://www.salvationarmy.org.uk/",
		"facebook": null,
		"twitter": null,
		"instagram": null,
		"opening_hours": null,
		"externalIds": {
			"foursquare": "5482cc9b498ed8dc22937bb5",
			"safegraph": "22f-222@4hx-2ys-jy9"
		},
		"paying": false,
		"mapboxId": "dXJuOm1ieHBvaTpmYmQxYzcxYS0xZWY5LTQ5OTQtOGU4OC00ZDA1NzZlM2EwZWE",
		"userId": null,
		"createdAt": "2024-04-18T16:45:36.000Z"
	},
	{
		"id": "jf8utyh2pblrew1",
		"slug": "the-bonham-hotel-edinburgh-eh3-7rn",
		"name": "The Bonham Hotel",
		"image": "https://media-cdn.tripadvisor.com/media/photo-s/18/45/15/bc/the-bonham-hotel.jpg",
		"description": null,
		"latitude": 55.951427,
		"longitude": -3.215805,
		"street": "35 Drumsheugh Gardens",
		"postcode": "EH3 7RN",
		"city": "Edinburgh",
		"country": "United Kingdom",
		"phone": "+44 131 226 6050",
		"website": "http://www.thebonham.com",
		"facebook": null,
		"twitter": null,
		"instagram": null,
		"opening_hours": null,
		"externalIds": {
			"safegraph": "zzy-226@4hx-2yk-dsq",
			"foursquare": "623017496f15495ba1b4dd1e",
			"tripadvisor": "188998"
		},
		"paying": false,
		"mapboxId": "dXJuOm1ieHBvaTo5NWIxODRlOC1hMzEyLTRhZjUtOTgwNi00NWE4MDExYzkwNzM",
		"userId": null,
		"createdAt": "2024-04-18T16:45:36.000Z"
	},
	{
		"id": "ssvy6pk8g533evz",
		"slug": "ben-jerrys-edinburgh-eh1-3au",
		"name": "Ben & Jerry's",
		"image": null,
		"description": null,
		"latitude": 55.956311,
		"longitude": -3.1858,
		"street": "61 Leith Street Omni Centre",
		"postcode": "EH1 3AU",
		"city": "Edinburgh",
		"country": "United Kingdom",
		"phone": "+441315573906",
		"website": "https://www.benjerry.co.uk",
		"facebook": null,
		"twitter": null,
		"instagram": null,
		"opening_hours": null,
		"externalIds": {
			"foursquare": "573f4dd1cd103f5340e1eb82",
			"safegraph": "zzy-22c@4hx-2yt-zvf"
		},
		"paying": false,
		"mapboxId": "dXJuOm1ieHBvaTo0NTdlZTBlNi1iZDY1LTRhNGEtODU2Zi01NTEzMGI2ZWQzZjY",
		"userId": null,
		"createdAt": "2024-04-18T16:45:48.000Z"
	},
	{
		"id": "aqjdh1jxczbhffi",
		"slug": "lk-bennett-edinburgh-eh1-3dq",
		"name": "LK Bennett",
		"image": null,
		"description": null,
		"latitude": 55.955164,
		"longitude": -3.190436,
		"street": "16 Multrees Walk",
		"postcode": "EH1 3DQ",
		"city": "Edinburgh",
		"country": "United Kingdom",
		"phone": "+441313703142",
		"website": "https://www.lkbennett.com",
		"facebook": null,
		"twitter": null,
		"instagram": null,
		"opening_hours": null,
		"externalIds": {
			"safegraph": "224-223@4hx-2yt-2kz",
			"foursquare": "642054d5a8e0b52dfeb456b3"
		},
		"paying": false,
		"mapboxId": "dXJuOm1ieHBvaTo1Yjk0Njk2MC1lNTg3LTRmZTQtYTZiNS0zYWExZTgwYjkyYWQ",
		"userId": null,
		"createdAt": "2024-04-18T16:45:48.000Z"
	},
	{
		"id": "g59dyk9dvellwvh",
		"slug": "frankie-bennys-edinburgh-eh1-1qs",
		"name": "Frankie & Benny's",
		"image": "https://media-cdn.tripadvisor.com/media/photo-s/13/2f/a1/0e/photo1jpg.jpg",
		"description": null,
		"latitude": 55.94986,
		"longitude": -3.188424,
		"street": "130 High Street",
		"postcode": "EH1 1QS",
		"city": "Edinburgh",
		"country": "United Kingdom",
		"phone": "+44 131 220 4445",
		"website": "https://www.frankieandbennys.com/restaurants/scotland/edinburgh/edinburgh-royal-mile",
		"facebook": null,
		"twitter": null,
		"instagram": null,
		"opening_hours": [
			{
				"day": "Sunday",
				"hours": "8:00 AM - 10:00 PM"
			},
			{
				"day": "Monday",
				"hours": "8:00 AM - 10:00 PM"
			},
			{
				"day": "Tuesday",
				"hours": "8:00 AM - 10:00 PM"
			},
			{
				"day": "Wednesday",
				"hours": "8:00 AM - 10:00 PM"
			},
			{
				"day": "Thursday",
				"hours": "8:00 AM - 11:00 PM"
			},
			{
				"day": "Friday",
				"hours": "8:00 AM - 11:00 PM"
			},
			{
				"day": "Saturday",
				"hours": "8:00 AM - 10:00 PM"
			}
		],
		"externalIds": {
			"tripadvisor": "8261484",
			"foursquare": "5593c4ff498ed8cb924b6503"
		},
		"paying": false,
		"mapboxId": "dXJuOm1ieHBvaTpmYjRjYzlmZi0wODcxLTQ2ZjAtYTU3OC1mY2E2NjUwOTkzMGU",
		"userId": null,
		"createdAt": "2024-04-18T16:45:48.000Z"
	},
	{
		"id": "pbpv8d4j8n0f803",
		"slug": "frankie-bennys-edinburgh-eh6-7ae",
		"name": "Frankie & Benny's",
		"image": "https://media-cdn.tripadvisor.com/media/photo-s/14/bd/d0/5e/view-from-the-window.jpg",
		"description": null,
		"latitude": 55.980988,
		"longitude": -3.178286,
		"street": "98 Ocean Drive 98 Ocean Drive",
		"postcode": "EH6 7AE",
		"city": "Edinburgh",
		"country": "United Kingdom",
		"phone": "+44 131 555 4803",
		"website": "https://www.frankieandbennys.com/restaurants/scotland/edinburgh/edinburgh-ocean-terminal",
		"facebook": null,
		"twitter": null,
		"instagram": null,
		"opening_hours": [
			{
				"day": "Sunday",
				"hours": "11:00 AM - 9:00 PM"
			},
			{
				"day": "Monday",
				"hours": "11:00 AM - 9:00 PM"
			},
			{
				"day": "Tuesday",
				"hours": "11:00 AM - 9:00 PM"
			},
			{
				"day": "Wednesday",
				"hours": "11:00 AM - 9:00 PM"
			},
			{
				"day": "Thursday",
				"hours": "11:00 AM - 9:00 PM"
			},
			{
				"day": "Friday",
				"hours": "11:00 AM - 9:00 PM"
			},
			{
				"day": "Saturday",
				"hours": "11:00 AM - 9:00 PM"
			}
		],
		"externalIds": {
			"tripadvisor": "2435541",
			"safegraph": "zzy-22b@4hw-xrr-59f",
			"foursquare": "4d73b8c2d145a1cddd65c6f3"
		},
		"paying": false,
		"mapboxId": "dXJuOm1ieHBvaTo5MzZkMmY5Ni1kY2MyLTQ1Y2ItYTM5MS1lNmVjNGE5NGZjODA",
		"userId": null,
		"createdAt": "2024-04-18T16:45:48.000Z"
	},
	{
		"id": "my5t351zapa6pzg",
		"slug": "bennets-bar-edinburgh-eh3-9lr",
		"name": "Bennets Bar",
		"image": "https://media-cdn.tripadvisor.com/media/photo-s/17/37/25/bf/photo1jpg.jpg",
		"description": null,
		"latitude": 55.941765,
		"longitude": -3.20345,
		"street": "8 Leven Street",
		"postcode": "EH3 9LR",
		"city": "Edinburgh",
		"country": "United Kingdom",
		"phone": "+44 131 229 5143",
		"website": "https://kilderkingroup.co.uk/bennets/",
		"facebook": null,
		"twitter": null,
		"instagram": null,
		"opening_hours": [
			{
				"day": "Sunday",
				"hours": "12:00 PM - 1:00 AM"
			},
			{
				"day": "Monday",
				"hours": "12:00 PM - 1:00 AM"
			},
			{
				"day": "Tuesday",
				"hours": "12:00 PM - 1:00 AM"
			},
			{
				"day": "Wednesday",
				"hours": "12:00 PM - 1:00 AM"
			},
			{
				"day": "Thursday",
				"hours": "12:00 PM - 1:00 AM"
			},
			{
				"day": "Friday",
				"hours": "12:00 PM - 1:00 AM"
			},
			{
				"day": "Saturday",
				"hours": "12:00 PM - 1:00 AM"
			}
		],
		"externalIds": {
			"tripadvisor": "3982780",
			"safegraph": "22v-222@4hx-2ym-rc5",
			"foursquare": "4b05881ef964a520b9b222e3"
		},
		"paying": false,
		"mapboxId": "dXJuOm1ieHBvaTpmM2M4MTA0My1hYzg2LTQ4OTAtYTg3Ni00ZGM4YTllMmYwYmM",
		"userId": null,
		"createdAt": "2024-04-18T16:45:48.000Z"
	},
	{
		"id": "iorf624pdllqb5i",
		"slug": "bennets-bar-edinburgh-eh10-5ht",
		"name": "Bennets Bar",
		"image": null,
		"description": null,
		"latitude": 55.926457,
		"longitude": -3.209495,
		"street": "1 Maxwell St",
		"postcode": "EH10 5HT",
		"city": "Edinburgh",
		"country": "United Kingdom",
		"phone": "0131 447 1903",
		"website": "http://www.bennetsbar.co.uk",
		"facebook": null,
		"twitter": null,
		"instagram": null,
		"opening_hours": null,
		"externalIds": {
			"foursquare": "4b3be09df964a520557d25e3"
		},
		"paying": false,
		"mapboxId": "dXJuOm1ieHBvaTo3MzhiYmY4NC01ODg4LTRkODMtYTU0MS01ZWZmMWYzM2YzYzk",
		"userId": null,
		"createdAt": "2024-04-18T16:45:48.000Z"
	},
	{
		"id": "79eyj8hn96zvuq8",
		"slug": "bennets-edinburgh-eh11-1br",
		"name": "Bennets",
		"image": null,
		"description": null,
		"latitude": 55.939719,
		"longitude": -3.218807,
		"street": "7 Yeaman Place",
		"postcode": "EH11 1BR",
		"city": "Edinburgh",
		"country": "United Kingdom",
		"phone": "+441316202409",
		"website": null,
		"facebook": null,
		"twitter": null,
		"instagram": null,
		"opening_hours": null,
		"externalIds": {
			"safegraph": "zzy-222@4hx-2ym-f9f",
			"foursquare": "d40d748bc00c462fc49c5610"
		},
		"paying": false,
		"mapboxId": "dXJuOm1ieHBvaTpmZjRkNGU3NC03NzcyLTRmYmMtOTRkNi00MTAyMmE2ZGQ3MWY",
		"userId": null,
		"createdAt": "2024-04-18T16:45:50.000Z"
	},
	{
		"id": "fna5s154q3briae",
		"slug": "the-east-india-company-edinburgh-eh2-3bu",
		"name": "The East India Company",
		"image": null,
		"description": null,
		"latitude": 55.952581,
		"longitude": -3.201045,
		"street": "80 George Street",
		"postcode": "EH2 3BU",
		"city": "Edinburgh",
		"country": "United Kingdom",
		"phone": "+441312261961",
		"website": null,
		"facebook": null,
		"twitter": null,
		"instagram": null,
		"opening_hours": null,
		"externalIds": {
			"safegraph": "222-222@4hx-2yt-kxq"
		},
		"paying": false,
		"mapboxId": "dXJuOm1ieHBvaTo4OGQ1ZWZhMC1jNmYxLTRiNDItYmRhZS0yMTZjYzE2OWU0OTg",
		"userId": null,
		"createdAt": "2024-04-18T16:46:02.000Z"
	},
	{
		"id": "jd8hko2jzjwvkvf",
		"slug": "the-earl-haig-fund-scotland-edinburgh-eh7-4hq",
		"name": "The Earl Haig Fund Scotland",
		"image": null,
		"description": null,
		"latitude": 55.965498,
		"longitude": -3.197273,
		"street": "66 Logie Green Rd",
		"postcode": "EH7 4HQ",
		"city": "Edinburgh",
		"country": "United Kingdom",
		"phone": "0131 557 2782",
		"website": "http://www.poppyscotland.org.uk",
		"facebook": null,
		"twitter": null,
		"instagram": null,
		"opening_hours": null,
		"externalIds": {
			"foursquare": "67f52ab3497049bbd38c7174"
		},
		"paying": false,
		"mapboxId": "dXJuOm1ieHBvaTphNTBlNDMxOS0yODU2LTQ0MDctODExMy0yMzBjNDQzZjQwYWI",
		"userId": null,
		"createdAt": "2024-04-18T16:46:02.000Z"
	},
	{
		"id": "garcfyd74snudlc",
		"slug": "the-earl-grange-cafe-edinburgh-eh9-2nn",
		"name": "The Earl Grange Cafe",
		"image": null,
		"description": null,
		"latitude": 55.933207,
		"longitude": -3.178074,
		"street": "2 Fountainhall Rd",
		"postcode": "EH9 2NN",
		"city": "Edinburgh",
		"country": "United Kingdom",
		"phone": "0131 629 0132",
		"website": null,
		"facebook": null,
		"twitter": null,
		"instagram": null,
		"opening_hours": null,
		"externalIds": {
			"foursquare": "5e1b0e2d3a91720007e0abc0"
		},
		"paying": false,
		"mapboxId": "dXJuOm1ieHBvaTowMGZkMDhiZS1mMDg1LTQ2YjQtOWNmYy04NTExZDEyNjc2N2Q",
		"userId": null,
		"createdAt": "2024-04-18T16:46:02.000Z"
	},
	{
		"id": "q910i228hmeg6ht",
		"slug": "the-earl-of-marchmont-edinburgh-eh9-1jg",
		"name": "The Earl of Marchmont",
		"image": "https://media-cdn.tripadvisor.com/media/photo-s/21/e1/e6/f0/reopened-after-covid.jpg",
		"description": null,
		"latitude": 55.93811,
		"longitude": -3.19302,
		"street": "22 Marchmont Crescent",
		"postcode": "EH9 1JG",
		"city": "Edinburgh",
		"country": "United Kingdom",
		"phone": "+44 131 662 1877",
		"website": "http://theearlofmarchmont.blogspot.co.uk",
		"facebook": null,
		"twitter": null,
		"instagram": null,
		"opening_hours": null,
		"externalIds": {
			"safegraph": "225-222@4hx-2ym-zcq",
			"tripadvisor": "12867903",
			"foursquare": "4b943610f964a520dc6e34e3"
		},
		"paying": false,
		"mapboxId": "dXJuOm1ieHBvaToxY2Y0ZDU3MC1mMzI3LTQ3MjEtYWRiYy01YTgwNTI2MmJiMjQ",
		"userId": null,
		"createdAt": "2024-04-18T16:46:03.000Z"
	},
	{
		"id": "21gblbvzhsvn6ov",
		"slug": "the-earl-of-zetland-grangemouth-fk3-8af",
		"name": "The Earl of Zetland",
		"image": "https://media-cdn.tripadvisor.com/media/photo-s/0d/92/1a/59/this-was-my-lunch-disgusting.jpg",
		"description": null,
		"latitude": 56.019306,
		"longitude": -3.722117,
		"street": "50 Bo'Ness Road FK3 8AF",
		"postcode": "FK3 8AF",
		"city": "Grangemouth",
		"country": "United Kingdom",
		"phone": "+44 1324 227468",
		"website": "http://www.facebook.com/earlofzetland/",
		"facebook": null,
		"twitter": null,
		"instagram": null,
		"opening_hours": null,
		"externalIds": {
			"tripadvisor": "1865783"
		},
		"paying": false,
		"mapboxId": "dXJuOm1ieHBvaTo3YWYyYjc4Zi0zMmIzLTRlMzgtOWY4NS0wNmZiMjI2OTc2NWY",
		"userId": null,
		"createdAt": "2024-04-18T16:46:03.000Z"
	},
	{
		"id": "4hljr4wbu7gwkkj",
		"slug": "the-salvation-army-edinburgh-eh3-9bn",
		"name": "The Salvation Army",
		"image": null,
		"description": null,
		"latitude": 55.944386,
		"longitude": -3.204896,
		"street": "36 Earl Grey Street",
		"postcode": "EH3 9BN",
		"city": "Edinburgh",
		"country": "United Kingdom",
		"phone": "+441312298787",
		"website": "https://www.salvationarmy.org.uk/",
		"facebook": null,
		"twitter": null,
		"instagram": null,
		"opening_hours": null,
		"externalIds": {
			"safegraph": "228-222@4hx-2yn-73q",
			"foursquare": "4d8a0e8a7139b1f7c628c2d4"
		},
		"paying": false,
		"mapboxId": "dXJuOm1ieHBvaTpiYmJmYzQ3ZC0xYTIzLTRjMGItOTY3Mi02ZjdjZmZmYmRiMGQ",
		"userId": null,
		"createdAt": "2024-04-18T16:46:03.000Z"
	},
	{
		"id": "lx3irn50hrxnx49",
		"slug": "the-city-cafe-edinburgh-eh1-1qr",
		"name": "The City Cafe",
		"image": "https://media-cdn.tripadvisor.com/media/photo-s/21/d8/6c/e1/breakfast.jpg",
		"description": null,
		"latitude": 55.949227,
		"longitude": -3.187654,
		"street": "19 Blair Street",
		"postcode": "EH1 1QR",
		"city": "Edinburgh",
		"country": "United Kingdom",
		"phone": "+44 131 220 0125",
		"website": "http://www.thecitycafe.co.uk",
		"facebook": null,
		"twitter": null,
		"instagram": null,
		"opening_hours": [
			{
				"day": "Sunday",
				"hours": "9:00 AM - 12:00 AM"
			},
			{
				"day": "Monday",
				"hours": "9:00 AM - 12:00 AM"
			},
			{
				"day": "Tuesday",
				"hours": "9:00 AM - 12:00 AM"
			},
			{
				"day": "Wednesday",
				"hours": "9:00 AM - 12:00 AM"
			},
			{
				"day": "Thursday",
				"hours": "9:00 AM - 12:00 AM"
			},
			{
				"day": "Friday",
				"hours": "9:00 AM - 1:00 AM"
			},
			{
				"day": "Saturday",
				"hours": "9:00 AM - 1:00 AM"
			}
		],
		"externalIds": {
			"safegraph": "22y-222@4hx-2yt-789",
			"foursquare": "4b05881df964a52094b222e3",
			"tripadvisor": "720716"
		},
		"paying": false,
		"mapboxId": "dXJuOm1ieHBvaTpkMWU5ZDc3MS1hNzA0LTQyM2YtYjdjMS1lY2Y0MjYzNjhkMTQ",
		"userId": null,
		"createdAt": "2024-04-18T16:46:12.000Z"
	},
	{
		"id": "90ftgz9lk35exca",
		"slug": "the-bruntsfield-edinburgh-eh10-4jt",
		"name": "The Bruntsfield",
		"image": "https://media-cdn.tripadvisor.com/media/photo-s/24/e4/4c/5b/the-bruntsfield.jpg",
		"description": null,
		"latitude": 55.938023,
		"longitude": -3.20605,
		"street": "69-74 Bruntsfield Place",
		"postcode": "EH10 4JT",
		"city": "Edinburgh",
		"country": "United Kingdom",
		"phone": "+44 131 229 1393",
		"website": "http://www.thebruntsfield.co.uk",
		"facebook": null,
		"twitter": null,
		"instagram": null,
		"opening_hours": null,
		"externalIds": {
			"tripadvisor": "191455",
			"safegraph": "22n-223@4hx-2ym-2zf",
			"foursquare": "4b05881cf964a5203cb222e3"
		},
		"paying": false,
		"mapboxId": "dXJuOm1ieHBvaTo4ZWQ3YjcyNC02YTQ2LTRiZWYtYjk0Ny1iZTFjNGEwZjNjYTk",
		"userId": null,
		"createdAt": "2024-04-18T16:46:12.000Z"
	},
	{
		"id": "69037cv3ek85bu8",
		"slug": "the-city-restaurant-edinburgh-eh8-9dh",
		"name": "The City Restaurant",
		"image": "https://media-cdn.tripadvisor.com/media/photo-s/1b/59/36/35/meals.jpg",
		"description": null,
		"latitude": 55.94657,
		"longitude": -3.185615,
		"street": "35 Nicolson Street",
		"postcode": "EH8 9DH",
		"city": "Edinburgh",
		"country": "United Kingdom",
		"phone": "+44 131 667 2819",
		"website": "http://www.thecityrestaurant.co.uk/",
		"facebook": null,
		"twitter": null,
		"instagram": null,
		"opening_hours": [
			{
				"day": "Sunday",
				"hours": "12:00 PM - 10:00 PM"
			},
			{
				"day": "Monday",
				"hours": "12:00 PM - 10:00 PM"
			},
			{
				"day": "Tuesday",
				"hours": "12:00 PM - 10:00 PM"
			},
			{
				"day": "Wednesday",
				"hours": "12:00 PM - 10:00 PM"
			},
			{
				"day": "Thursday",
				"hours": "12:00 PM - 10:00 PM"
			},
			{
				"day": "Friday",
				"hours": "10:00 AM - 10:00 PM"
			},
			{
				"day": "Saturday",
				"hours": "10:00 AM - 10:00 PM"
			}
		],
		"externalIds": {
			"tripadvisor": "1024709",
			"foursquare": "4b467040f964a520f62026e3",
			"safegraph": "zzy-22k@4hx-2yt-835"
		},
		"paying": false,
		"mapboxId": "dXJuOm1ieHBvaTpkNGE2YTM1NS0zNzdjLTQwMTItYTJhMS1jYmFiMDQxMWYyNmM",
		"userId": null,
		"createdAt": "2024-04-18T16:46:12.000Z"
	},
	{
		"id": "iicp8oterax9xvt",
		"slug": "radisson-blu-hotel-edinburgh-city-centre-edinburgh-eh1-1th",
		"name": "Radisson Blu Hotel, Edinburgh City Centre",
		"image": "https://media-cdn.tripadvisor.com/media/photo-s/10/0a/43/12/the-hotel--v16949006.jpg",
		"description": null,
		"latitude": 55.95006,
		"longitude": -3.186695,
		"street": "80 High Street The Royal Mile",
		"postcode": "EH1 1TH",
		"city": "Edinburgh",
		"country": "United Kingdom",
		"phone": "+44 131 557 9797",
		"website": "https://www.radissonhotels.com/de-de/hotels/radisson-blu-edinburgh?facilitatorId=GLOBALSEO&cid=a:se+b:yex+c:emea+i:local+e:rdb+d:ukirwe+f:de-de+h:EDIZA",
		"facebook": null,
		"twitter": null,
		"instagram": null,
		"opening_hours": null,
		"externalIds": {
			"foursquare": "4b0e837bf964a520335823e3",
			"safegraph": "22d-223@4hx-2yt-7kf",
			"tripadvisor": "189363"
		},
		"paying": false,
		"mapboxId": "dXJuOm1ieHBvaTo4YmRjMWM5Yy00MjIyLTRlMjQtOGE2Zi1jY2NlYmQ1MjkzZDU",
		"userId": null,
		"createdAt": "2024-04-18T16:46:12.000Z"
	},
	{
		"id": "wru74rnq3z5hb8t",
		"slug": "the-edinburgh-city-youth-cafe-edinburgh-eh1-2hg",
		"name": "The Edinburgh City Youth Cafe",
		"image": null,
		"description": null,
		"latitude": 55.948808,
		"longitude": -3.193477,
		"street": "6 Victoria Terrace",
		"postcode": "EH1 2HG",
		"city": "Edinburgh",
		"country": "United Kingdom",
		"phone": "0131 220 2108",
		"website": "http://www.6vt.info",
		"facebook": null,
		"twitter": null,
		"instagram": null,
		"opening_hours": null,
		"externalIds": {
			"foursquare": "35dc144b0d3344c55e402f17"
		},
		"paying": false,
		"mapboxId": "dXJuOm1ieHBvaTozMmZmNmIzMC0wMzRhLTQ1ZGEtYTM4Mi1iY2RlMGJiMTI4MjE",
		"userId": null,
		"createdAt": "2024-04-18T16:46:12.000Z"
	},
	{
		"id": "t0lyi17cyk5wnro",
		"slug": "the-city-canteen-glasgow-g1-3je",
		"name": "The City Canteen",
		"image": null,
		"description": null,
		"latitude": 55.859596,
		"longitude": -4.254094,
		"street": "74 Buchanan Street",
		"postcode": "G1 3JE",
		"city": "Glasgow",
		"country": "United Kingdom",
		"phone": "+441412214383",
		"website": null,
		"facebook": null,
		"twitter": null,
		"instagram": null,
		"opening_hours": null,
		"externalIds": {
			"safegraph": "zzy-22w@4gv-vrt-mrk"
		},
		"paying": false,
		"mapboxId": "dXJuOm1ieHBvaTo5NGQ0MGZiMS04Y2VjLTQyYmEtYWI4My1lNzIzYzAxYTg4Yzc",
		"userId": null,
		"createdAt": "2024-04-18T16:46:12.000Z"
	},
	{
		"id": "q808un7s5b8so3j",
		"slug": "the-perfume-shop-edinburgh-eh1-3ad",
		"name": "The Perfume Shop",
		"image": null,
		"description": null,
		"latitude": 55.955367,
		"longitude": -3.188911,
		"street": "209 St James Crescent",
		"postcode": "EH1 3AD",
		"city": "Edinburgh",
		"country": "United Kingdom",
		"phone": "+441315572555",
		"website": "http://www.theperfumeshop.com",
		"facebook": null,
		"twitter": null,
		"instagram": null,
		"opening_hours": null,
		"externalIds": {
			"foursquare": "60e7365387ab115a14d6a467",
			"safegraph": "zzy-22b@4hx-2yt-2x5"
		},
		"paying": false,
		"mapboxId": "dXJuOm1ieHBvaTo4NmZhMDI5ZC1kZDM2LTQ3MTAtODZhYi1lNWVjZTgzNTg4NWU",
		"userId": null,
		"createdAt": "2024-04-18T16:46:23.000Z"
	},
	{
		"id": "9seqc14xeftrhzr",
		"slug": "the-pear-tree-edinburgh-eh8-9dd",
		"name": "The Pear Tree",
		"image": "https://media-cdn.tripadvisor.com/media/photo-s/2a/2c/52/56/caption.jpg",
		"description": null,
		"latitude": 55.944428,
		"longitude": -3.185296,
		"street": "38 West Nicolson Street",
		"postcode": "EH8 9DD",
		"city": "Edinburgh",
		"country": "United Kingdom",
		"phone": "+44 131 667 7533",
		"website": "http://www.peartreeedinburgh.co.uk/",
		"facebook": null,
		"twitter": null,
		"instagram": null,
		"opening_hours": [
			{
				"day": "Sunday",
				"hours": "12:00 PM - 1:00 AM"
			},
			{
				"day": "Monday",
				"hours": "12:00 PM - 1:00 AM"
			},
			{
				"day": "Tuesday",
				"hours": "12:00 PM - 1:00 AM"
			},
			{
				"day": "Wednesday",
				"hours": "12:00 PM - 1:00 AM"
			},
			{
				"day": "Thursday",
				"hours": "12:00 PM - 1:00 AM"
			},
			{
				"day": "Friday",
				"hours": "12:00 PM - 1:00 AM"
			},
			{
				"day": "Saturday",
				"hours": "12:00 PM - 1:00 AM"
			}
		],
		"externalIds": {
			"tripadvisor": "23898201",
			"foursquare": "4af47d94f964a52013f321e3"
		},
		"paying": false,
		"mapboxId": "dXJuOm1ieHBvaTplNTdkMjBmMi1mMDAzLTQ1MjAtYmU3OC1iZGQ0NzhkNTdjMmM",
		"userId": null,
		"createdAt": "2024-04-18T16:46:23.000Z"
	},
	{
		"id": "hn7vx231p91zc7t",
		"slug": "the-peartree-house-edinburgh-eh8-9dd",
		"name": "The Peartree House",
		"image": null,
		"description": null,
		"latitude": 55.944428,
		"longitude": -3.185296,
		"street": "38 West Nicolson Street",
		"postcode": "EH8 9DD",
		"city": "Edinburgh",
		"country": "United Kingdom",
		"phone": "+44 131 370 1540",
		"website": "http://www.countinghouseedinburgh.co.uk/",
		"facebook": null,
		"twitter": null,
		"instagram": null,
		"opening_hours": null,
		"externalIds": {
			"tripadvisor": "23891068",
			"safegraph": "226-223@4hx-2yt-59f",
			"foursquare": "4c31e95609a99c74d96e0b2a"
		},
		"paying": false,
		"mapboxId": "dXJuOm1ieHBvaTpiNGM0ZGI3Mi0xOWQwLTQzNTktOGFjOC1kZjdkY2RmMDdhYzQ",
		"userId": null,
		"createdAt": "2024-04-18T16:46:23.000Z"
	},
	{
		"id": "vpk1aeqdevugk15",
		"slug": "the-beerhive-edinburgh-eh7-4ea",
		"name": "The Beerhive",
		"image": null,
		"description": null,
		"latitude": 55.962283,
		"longitude": -3.19607,
		"street": "24 Rodney Street",
		"postcode": "EH7 4EA",
		"city": "Edinburgh",
		"country": "United Kingdom",
		"phone": "+441315589255",
		"website": "http://www.thebeerhive.co.uk",
		"facebook": null,
		"twitter": null,
		"instagram": null,
		"opening_hours": null,
		"externalIds": {
			"foursquare": "501916b9e4b0817b81a83e75",
			"safegraph": "zzy-223@4hx-2yv-66k"
		},
		"paying": false,
		"mapboxId": "dXJuOm1ieHBvaTphNzYyOWM3Ny1kYzE5LTQxMDktYjg3Zi1hZWZhMWMwMDcyNjY",
		"userId": null,
		"createdAt": "2024-04-18T16:46:33.000Z"
	},
	{
		"id": "j0frkldpsp9ro4v",
		"slug": "the-bees-knees-playgroup-currie-eh14-5ru",
		"name": "The Bees Knees Playgroup",
		"image": null,
		"description": null,
		"latitude": 55.894308,
		"longitude": -3.316033,
		"street": "280 Lanark Road West",
		"postcode": "EH14 5RU",
		"city": "Currie",
		"country": "United Kingdom",
		"phone": "+447770060373",
		"website": null,
		"facebook": null,
		"twitter": null,
		"instagram": null,
		"opening_hours": null,
		"externalIds": {
			"foursquare": "0338111330f4429fb0c57551",
			"safegraph": "zzy-223@4hx-2wz-mrk"
		},
		"paying": false,
		"mapboxId": "dXJuOm1ieHBvaTpiZDY3MzE4Ny03NDM1LTRkYzAtYTU5MC02OGFhYmI4NzA0Mjc",
		"userId": null,
		"createdAt": "2024-04-18T16:46:33.000Z"
	},
	{
		"id": "hxgkc5xuh1aak2h",
		"slug": "the-salvation-army-portobello-corps-edinburgh-eh15-1hd",
		"name": "The Salvation Army Portobello Corps",
		"image": null,
		"description": null,
		"latitude": 55.954432,
		"longitude": -3.111531,
		"street": "40 Bath Street",
		"postcode": "EH15 1HD",
		"city": "Edinburgh",
		"country": "United Kingdom",
		"phone": "+441316697706",
		"website": "https://www.salvationarmy.org.uk/",
		"facebook": null,
		"twitter": null,
		"instagram": null,
		"opening_hours": null,
		"externalIds": {
			"foursquare": "5a38d4519c974421e349a7c9",
			"safegraph": "22n-222@4hw-z4r-k9f"
		},
		"paying": false,
		"mapboxId": "dXJuOm1ieHBvaTpiZmJkY2QzZS0wZDA4LTQwMDUtODIwNC02MzMzOTQwMTJkZGM",
		"userId": null,
		"createdAt": "2024-04-18T16:46:33.000Z"
	},
	{
		"id": "q4jqo6ff1kn3y0f",
		"slug": "the-beach-house-edinburgh-eh15-1he",
		"name": "The Beach House",
		"image": "https://media-cdn.tripadvisor.com/media/photo-s/1b/11/de/75/img-20200303-131940-largejpg.jpg",
		"description": null,
		"latitude": 55.954808,
		"longitude": -3.110333,
		"street": "57 Bath Street Portobello Promenade",
		"postcode": "EH15 1HE",
		"city": "Edinburgh",
		"country": "United Kingdom",
		"phone": "+44 131 657 2636",
		"website": "http://www.thebeachhousecafe.co.uk/",
		"facebook": null,
		"twitter": null,
		"instagram": null,
		"opening_hours": [
			{
				"day": "Sunday",
				"hours": "8:00 AM - 9:00 PM"
			},
			{
				"day": "Monday",
				"hours": "8:00 AM - 9:00 PM"
			},
			{
				"day": "Tuesday",
				"hours": "8:00 AM - 9:00 PM"
			},
			{
				"day": "Wednesday",
				"hours": "8:00 AM - 9:00 PM"
			},
			{
				"day": "Thursday",
				"hours": "8:00 AM - 9:00 PM"
			},
			{
				"day": "Friday",
				"hours": "8:00 AM - 9:00 PM"
			},
			{
				"day": "Saturday",
				"hours": "8:00 AM - 9:00 PM"
			}
		],
		"externalIds": {
			"foursquare": "4b0c37d1f964a520193923e3",
			"safegraph": "225-222@4hw-z4r-k4v",
			"tripadvisor": "1777075"
		},
		"paying": false,
		"mapboxId": "dXJuOm1ieHBvaTozMGNlOGM3ZC1hMDlmLTQ1MmQtOTA1Yy0zZDY3YTI1MGM2MmM",
		"userId": null,
		"createdAt": "2024-04-18T16:46:33.000Z"
	},
	{
		"id": "wmpr87cko07ryuf",
		"slug": "the-bearded-baker-edinburgh-eh7-4dx",
		"name": "The Bearded Baker",
		"image": "https://media-cdn.tripadvisor.com/media/photo-s/0e/52/44/d3/the-bearded-baker.jpg",
		"description": null,
		"latitude": 55.9619,
		"longitude": -3.195356,
		"street": "46 Rodney Street",
		"postcode": "EH7 4DX",
		"city": "Edinburgh",
		"country": "United Kingdom",
		"phone": "+44 131 281 9285",
		"website": "http://www.thebeardedbaker.co.uk",
		"facebook": null,
		"twitter": null,
		"instagram": null,
		"opening_hours": [
			{
				"day": "Sunday",
				"hours": "7:30 AM - 4:00 PM"
			},
			{
				"day": "Monday",
				"hours": "7:30 AM - 4:00 PM"
			},
			{
				"day": "Tuesday",
				"hours": "7:30 AM - 4:00 PM"
			},
			{
				"day": "Wednesday",
				"hours": "7:30 AM - 4:00 PM"
			},
			{
				"day": "Thursday",
				"hours": "7:30 AM - 4:00 PM"
			},
			{
				"day": "Friday",
				"hours": "9:00 AM - 4:00 PM"
			},
			{
				"day": "Saturday",
				"hours": "9:00 AM - 4:00 PM"
			}
		],
		"externalIds": {
			"foursquare": "58971981f595726e514aa540",
			"tripadvisor": "12094287",
			"safegraph": "22x-225@4hx-2yv-5xq"
		},
		"paying": false,
		"mapboxId": "dXJuOm1ieHBvaTo5ZDE2ZjAwYy1kNGI2LTQwNjQtOWE0Ni1hZmZmNGE1YWRiNTg",
		"userId": null,
		"createdAt": "2024-04-18T16:46:33.000Z"
	},
	{
		"id": "ceg93a1lofeyyq3",
		"slug": "the-beehive-boness-eh51-0ea",
		"name": "The Beehive",
		"image": null,
		"description": null,
		"latitude": 56.017054,
		"longitude": -3.608856,
		"street": "28 South Street",
		"postcode": "EH51 0EA",
		"city": "Bo'ness",
		"country": "United Kingdom",
		"phone": "+441506822459",
		"website": null,
		"facebook": null,
		"twitter": null,
		"instagram": null,
		"opening_hours": null,
		"externalIds": {
			"foursquare": "c825b26a1e9a468c4ea767b7",
			"safegraph": "23g-222@4hx-34m-hnq"
		},
		"paying": false,
		"mapboxId": "dXJuOm1ieHBvaToxNjQ5NTNlOC0wMTNjLTRlZGYtYjY3YS01M2QzYjMwNTVkYTI",
		"userId": null,
		"createdAt": "2024-04-18T16:46:33.000Z"
	},
	{
		"id": "ak8q9gz5mwx3taz",
		"slug": "the-beehive-inn-edinburgh-eh1-2ju",
		"name": "The Beehive Inn",
		"image": "https://media-cdn.tripadvisor.com/media/photo-s/0d/77/75/be/photo9jpg.jpg",
		"description": null,
		"latitude": 55.947209,
		"longitude": -3.196974,
		"street": "18/20 Grassmarket",
		"postcode": "EH1 2JU",
		"city": "Edinburgh",
		"country": "United Kingdom",
		"phone": "+44 131 225 7171",
		"website": "https://www.belhaven.co.uk/pubs/midlothian/beehive-inn?utm_source=tripadvisor&utm_medium=locations&utm_campaign=HT_pubpage",
		"facebook": null,
		"twitter": null,
		"instagram": null,
		"opening_hours": [
			{
				"day": "Sunday",
				"hours": "12:00 PM - 12:00 AM"
			},
			{
				"day": "Monday",
				"hours": "12:00 PM - 12:00 AM"
			},
			{
				"day": "Tuesday",
				"hours": "12:00 PM - 12:00 AM"
			},
			{
				"day": "Wednesday",
				"hours": "12:00 PM - 12:00 AM"
			},
			{
				"day": "Thursday",
				"hours": "12:00 PM - 12:00 AM"
			},
			{
				"day": "Friday",
				"hours": "12:00 PM - 1:30 AM"
			},
			{
				"day": "Saturday",
				"hours": "12:00 PM - 1:30 AM"
			}
		],
		"externalIds": {
			"tripadvisor": "1045132",
			"safegraph": "22h-223@4hx-2yt-5zz",
			"foursquare": "4b05881ef964a520b8b222e3"
		},
		"paying": false,
		"mapboxId": "dXJuOm1ieHBvaTowODliNDJhMS0yMjMyLTQ3ZDYtODc1My0wMzEyNWY2NDlhZGM",
		"userId": null,
		"createdAt": "2024-04-18T16:46:33.000Z"
	},
	{
		"id": "5zr2od1a7tm4cmw",
		"slug": "oz-bar-edinburgh-eh1-2qg",
		"name": "Oz Bar",
		"image": "https://media-cdn.tripadvisor.com/media/photo-s/2a/ce/af/25/caption.jpg",
		"description": null,
		"latitude": 55.947463,
		"longitude": -3.192054,
		"street": "33 Candlemaker Row",
		"postcode": "EH1 2QG",
		"city": "Edinburgh",
		"country": "United Kingdom",
		"phone": "+44 131 226 7190",
		"website": "http://www.theozbar.co.uk",
		"facebook": null,
		"twitter": null,
		"instagram": null,
		"opening_hours": [
			{
				"day": "Sunday",
				"hours": "1:00 PM - 1:00 AM"
			},
			{
				"day": "Monday",
				"hours": "1:00 PM - 1:00 AM"
			},
			{
				"day": "Tuesday",
				"hours": "12:00 PM - 1:00 AM"
			},
			{
				"day": "Wednesday",
				"hours": "1:00 PM - 1:00 AM"
			},
			{
				"day": "Thursday",
				"hours": "1:00 PM - 1:00 AM"
			},
			{
				"day": "Friday",
				"hours": "1:00 PM - 1:00 AM"
			},
			{
				"day": "Saturday",
				"hours": "1:00 PM - 1:00 AM"
			}
		],
		"externalIds": {
			"foursquare": "4bae7aecf964a5209ab73be3",
			"tripadvisor": "2303020",
			"safegraph": "22h-222@4hx-2yt-4qf"
		},
		"paying": false,
		"mapboxId": "dXJuOm1ieHBvaTplMTA0MmQyMC1mNjczLTQ5N2EtOGQwZS0wZGRhMTA4ZWRjMmU",
		"userId": null,
		"createdAt": "2024-04-18T16:46:44.000Z"
	},
	{
		"id": "vob0o3vv36sdic8",
		"slug": "oz-cafe-edinburgh-eh11-4ah",
		"name": "Oz Cafe",
		"image": "https://media-cdn.tripadvisor.com/media/photo-s/14/77/53/07/chicken-burger.jpg",
		"description": null,
		"latitude": 55.924428,
		"longitude": -3.277137,
		"street": "329 Calder Road",
		"postcode": "EH11 4AH",
		"city": "Edinburgh",
		"country": "United Kingdom",
		"phone": "+44 131 443 5656",
		"website": "https://www.facebook.com/Oz-cafe-275464529152431/",
		"facebook": null,
		"twitter": null,
		"instagram": null,
		"opening_hours": [
			{
				"day": "Sunday",
				"hours": "8:00 AM - 5:00 PM"
			},
			{
				"day": "Monday",
				"hours": "8:00 AM - 5:00 PM"
			},
			{
				"day": "Tuesday",
				"hours": "8:00 AM - 5:00 PM"
			},
			{
				"day": "Wednesday",
				"hours": "8:00 AM - 5:00 PM"
			},
			{
				"day": "Thursday",
				"hours": "8:00 AM - 5:00 PM"
			},
			{
				"day": "Friday",
				"hours": "8:00 AM - 5:00 PM"
			},
			{
				"day": "Saturday",
				"hours": "8:00 AM - 5:00 PM"
			}
		],
		"externalIds": {
			"tripadvisor": "5815879",
			"safegraph": "zzy-223@4hx-2x2-wzf",
			"foursquare": "52dbb7cd498ee46b65083302"
		},
		"paying": false,
		"mapboxId": "dXJuOm1ieHBvaTo3ZGY0NjVjZC1kNjk4LTRlZmYtYmM0YS1hNDJlM2Y0N2E1ZDI",
		"userId": null,
		"createdAt": "2024-04-18T16:46:44.000Z"
	},
	{
		"id": "st0zjnxf2975o5q",
		"slug": "ozzys-barber-edinburgh-eh6-5bx",
		"name": "Ozzy's Barber",
		"image": null,
		"description": null,
		"latitude": 55.965596,
		"longitude": -3.17642,
		"street": "280 Leith Walk",
		"postcode": "EH6 5BX",
		"city": "Edinburgh",
		"country": "United Kingdom",
		"phone": null,
		"website": null,
		"facebook": null,
		"twitter": null,
		"instagram": null,
		"opening_hours": null,
		"externalIds": {
			"foursquare": "5e3e9ab14c4a850008839200"
		},
		"paying": false,
		"mapboxId": "dXJuOm1ieHBvaTo3ODUyZDVjYy04YjdiLTQ4MDgtOTJhNC1jZDcyN2FhNGUxNzM",
		"userId": null,
		"createdAt": "2024-04-18T16:46:44.000Z"
	},
	{
		"id": "7iocstrl41sw31u",
		"slug": "bar-oz-edinburgh-eh1-2qn",
		"name": "Bar Oz",
		"image": null,
		"description": null,
		"latitude": 55.945842,
		"longitude": -3.190906,
		"street": "14 Forrest Rd",
		"postcode": "EH1 2QN",
		"city": "Edinburgh",
		"country": "United Kingdom",
		"phone": "0131 220 1816",
		"website": null,
		"facebook": null,
		"twitter": null,
		"instagram": null,
		"opening_hours": null,
		"externalIds": {
			"foursquare": "3e65d817a6944ff440a8bdf8"
		},
		"paying": false,
		"mapboxId": "dXJuOm1ieHBvaTpiYmYxOGQ1Mi01ZDc3LTRhZDAtYjQzNC02M2RmZTgyZGZiMzE",
		"userId": null,
		"createdAt": "2024-04-18T16:46:44.000Z"
	},
	{
		"id": "lvcwv6dxv3i9ua4",
		"slug": "franco-manca-edinburgh-eh4-1lu",
		"name": "Franco Manca",
		"image": "https://media-cdn.tripadvisor.com/media/photo-s/28/4b/1a/21/burnt-pizza-skimped-on.jpg",
		"description": null,
		"latitude": 55.958163,
		"longitude": -3.208863,
		"street": "1 Deanhaugh Street",
		"postcode": "EH4 1LU",
		"city": "Edinburgh",
		"country": "United Kingdom",
		"phone": "+44 131 560 1342",
		"website": "http://www.francomanca.co.uk",
		"facebook": null,
		"twitter": null,
		"instagram": null,
		"opening_hours": [
			{
				"day": "Sunday",
				"hours": "11:30 AM - 10:00 PM"
			},
			{
				"day": "Monday",
				"hours": "11:30 AM - 10:00 PM"
			},
			{
				"day": "Tuesday",
				"hours": "11:30 AM - 10:00 PM"
			},
			{
				"day": "Wednesday",
				"hours": "11:30 AM - 10:00 PM"
			},
			{
				"day": "Thursday",
				"hours": "11:30 AM - 11:00 PM"
			},
			{
				"day": "Friday",
				"hours": "11:30 AM - 11:00 PM"
			},
			{
				"day": "Saturday",
				"hours": "11:30 AM - 9:00 PM"
			}
		],
		"externalIds": {
			"foursquare": "62d44823e1ca7648c3cb39f7",
			"safegraph": "234-223@4hx-2yt-b8v",
			"tripadvisor": "24165706"
		},
		"paying": false,
		"mapboxId": "dXJuOm1ieHBvaTo2YjRiYTNlOS0zYjUwLTQ2YTUtOWE2Yy1lYTViZWU0MzNlNjc",
		"userId": null,
		"createdAt": "2024-04-18T16:46:53.000Z"
	},
	{
		"id": "pa211alkxb3n1ud",
		"slug": "frankenstein-pub-edinburgh-eh1-1en",
		"name": "Frankenstein Pub",
		"image": "https://media-cdn.tripadvisor.com/media/photo-s/05/a4/4f/ce/frankenstein-pub-edinburgh.jpg",
		"description": null,
		"latitude": 55.947386,
		"longitude": -3.191606,
		"street": "26 George IV Bridge",
		"postcode": "EH1 1EN",
		"city": "Edinburgh",
		"country": "United Kingdom",
		"phone": "+44 131 622 1818",
		"website": "http://www.frankensteinedinburgh.co.uk",
		"facebook": null,
		"twitter": null,
		"instagram": null,
		"opening_hours": [
			{
				"day": "Sunday",
				"hours": "12:00 PM - 2:00 AM"
			},
			{
				"day": "Monday",
				"hours": "12:00 PM - 1:00 AM"
			},
			{
				"day": "Tuesday",
				"hours": "12:00 PM - 1:00 AM"
			},
			{
				"day": "Wednesday",
				"hours": "12:00 PM - 1:00 AM"
			},
			{
				"day": "Thursday",
				"hours": "12:00 PM - 1:00 AM"
			},
			{
				"day": "Friday",
				"hours": "12:00 PM - 2:00 AM"
			},
			{
				"day": "Saturday",
				"hours": "12:00 PM - 2:00 AM"
			}
		],
		"externalIds": {
			"foursquare": "4b466f21f964a520ca2026e3",
			"safegraph": "233-222@4hx-2yt-4qf",
			"tripadvisor": "5913510"
		},
		"paying": false,
		"mapboxId": "dXJuOm1ieHBvaTpiMDZiZGQwZC00ODY4LTQ4Y2QtODczYy0yYTA0ZjY2ODYyMmU",
		"userId": null,
		"createdAt": "2024-04-18T16:46:53.000Z"
	},
	{
		"id": "joog2xa59yo43nr",
		"slug": "made-in-france-edinburgh-eh3-9qx",
		"name": "Made In France",
		"image": null,
		"description": null,
		"latitude": 55.942437,
		"longitude": -3.2041,
		"street": "5 Lochrin Place",
		"postcode": "EH3 9QX",
		"city": "Edinburgh",
		"country": "United Kingdom",
		"phone": "+441312211184",
		"website": null,
		"facebook": null,
		"twitter": null,
		"instagram": null,
		"opening_hours": null,
		"externalIds": {
			"safegraph": "22t-222@4hx-2ym-rtv",
			"foursquare": "4cb569cf3abd9c74519d562f"
		},
		"paying": false,
		"mapboxId": "dXJuOm1ieHBvaTo0OGRlNjQyYS00ZGU0LTRhYzMtYjAxYi02YWY3NDg0YmViNGY",
		"userId": null,
		"createdAt": "2024-04-18T16:46:53.000Z"
	},
	{
		"id": "kpx5uo2bi2sl5ho",
		"slug": "franken-garage-nrs-gmbh-nutzfzg-u-reisemobilservice-brgstadt-63927",
		"name": "Franken-Garage NRS GmbH Nutzfzg-u Reisemobilservice",
		"image": null,
		"description": null,
		"latitude": 49.706149,
		"longitude": 9.275881,
		"street": "Eichenbühler Straße 79",
		"postcode": "63927",
		"city": "Bürgstadt",
		"country": "Germany",
		"phone": "+4993719487248",
		"website": "https://private.iveco.com/germany/Pages/Home-page.aspx",
		"facebook": null,
		"twitter": null,
		"instagram": null,
		"opening_hours": null,
		"externalIds": {
			"foursquare": "5abbb8d03fcee876e718635b",
			"safegraph": "zzy-222@53q-vyf-6p9"
		},
		"paying": false,
		"mapboxId": "dXJuOm1ieHBvaTpiYzlmZDFkMC1kZDJlLTRjOTQtYTdjZi1kNDBmZjY1OTQ2NTg",
		"userId": null,
		"createdAt": "2024-04-18T16:46:53.000Z"
	},
	{
		"id": "3l6yfdv3cat45ns",
		"slug": "the-mash-tun-edinburgh-eh7-5pw",
		"name": "The Mash Tun",
		"image": "https://media-cdn.tripadvisor.com/media/photo-s/19/4f/c3/e6/another-angle-from-inside.jpg",
		"description": null,
		"latitude": 55.960074,
		"longitude": -3.171501,
		"street": "154 Easter Road",
		"postcode": "EH7 5PW",
		"city": "Edinburgh",
		"country": "United Kingdom",
		"phone": "+44 131 661 3896",
		"website": "http://mashtunedinburgh.co.uk/",
		"facebook": null,
		"twitter": null,
		"instagram": null,
		"opening_hours": [
			{
				"day": "Sunday",
				"hours": "12:00 PM - 12:00 AM"
			},
			{
				"day": "Monday",
				"hours": "12:00 PM - 12:00 AM"
			},
			{
				"day": "Tuesday",
				"hours": "12:00 PM - 12:00 AM"
			},
			{
				"day": "Wednesday",
				"hours": "12:00 PM - 12:00 AM"
			},
			{
				"day": "Thursday",
				"hours": "12:00 PM - 12:00 AM"
			},
			{
				"day": "Friday",
				"hours": "11:00 AM - 1:00 AM"
			},
			{
				"day": "Saturday",
				"hours": "11:00 AM - 1:00 AM"
			}
		],
		"externalIds": {
			"foursquare": "501fe26be4b05ddc7e272bb9",
			"tripadvisor": "3981277",
			"safegraph": "zzy-228@4hw-z4t-zfz"
		},
		"paying": false,
		"mapboxId": "dXJuOm1ieHBvaToxNDAwMjY0Mi1lNzE5LTQyZTAtYmUxYy1hYjY1NzVhY2M1YTQ",
		"userId": null,
		"createdAt": "2024-04-18T16:47:01.000Z"
	},
	{
		"id": "te9uifxhjv9btqm",
		"slug": "the-mash-house-edinburgh-eh1-1jq",
		"name": "The Mash House",
		"image": "https://media-cdn.tripadvisor.com/media/photo-s/20/48/33/c9/caption.jpg",
		"description": null,
		"latitude": 55.948631,
		"longitude": -3.187706,
		"street": "37 Guthrie Street Hasties Close",
		"postcode": "EH1 1JQ",
		"city": "Edinburgh",
		"country": "United Kingdom",
		"phone": "+44 131 220 2514",
		"website": "http://www.themashhouse.co.uk",
		"facebook": null,
		"twitter": null,
		"instagram": null,
		"opening_hours": [
			{
				"day": "Sunday",
				"hours": "Closed"
			},
			{
				"day": "Monday",
				"hours": "Closed"
			},
			{
				"day": "Tuesday",
				"hours": "10:30 AM - 12:00 AM"
			},
			{
				"day": "Wednesday",
				"hours": "10:30 AM - 7:00 AM"
			},
			{
				"day": "Thursday",
				"hours": "12:00 AM - 3:00 PM"
			},
			{
				"day": "Friday",
				"hours": "7:00 AM - 3:00 PM"
			},
			{
				"day": "Saturday",
				"hours": "7:00 AM - 3:00 PM"
			}
		],
		"externalIds": {
			"foursquare": "555e1f1b498e23396ae3d177",
			"safegraph": "228-224@4hx-2yt-4vz",
			"tripadvisor": "5571216"
		},
		"paying": false,
		"mapboxId": "dXJuOm1ieHBvaToxYTYxMjE5Zi03MTRmLTQ0MzUtOTRhMi02ZmUzMGY3NzZkZTU",
		"userId": null,
		"createdAt": "2024-04-18T16:47:01.000Z"
	},
	{
		"id": "p8l4o7kn6yussup",
		"slug": "the-massage-guy-edinburgh-eh2-3jp",
		"name": "The Massage Guy",
		"image": null,
		"description": null,
		"latitude": 55.953426,
		"longitude": -3.203104,
		"street": "21 Hill St",
		"postcode": "EH2 3JP",
		"city": "Edinburgh",
		"country": "United Kingdom",
		"phone": "07849 857272",
		"website": "http://www.massageguy.co.uk",
		"facebook": null,
		"twitter": null,
		"instagram": null,
		"opening_hours": null,
		"externalIds": {
			"foursquare": "11c6abc3fb5a41494419fb8f"
		},
		"paying": false,
		"mapboxId": "dXJuOm1ieHBvaTpjMmNmZWQ5Yi0wZmRhLTQ1YmUtYThmMi02MDczMjI1ZTA4ZDU",
		"userId": null,
		"createdAt": "2024-04-18T16:47:01.000Z"
	},
	{
		"id": "tktv0egukqbfwv7",
		"slug": "the-magnum-edinburgh-eh1-3qb",
		"name": "The Magnum",
		"image": "https://media-cdn.tripadvisor.com/media/photo-s/0e/71/62/9c/ginger-sweet-chilli-soy.jpg",
		"description": null,
		"latitude": 55.956857,
		"longitude": -3.193274,
		"street": "1 Albany Street",
		"postcode": "EH1 3QB",
		"city": "Edinburgh",
		"country": "United Kingdom",
		"phone": "+44 131 557 4366",
		"website": "http://www.themagnumrestaurant.co.uk",
		"facebook": null,
		"twitter": null,
		"instagram": null,
		"opening_hours": [
			{
				"day": "Sunday",
				"hours": "11:00 AM - 11:30 PM"
			},
			{
				"day": "Monday",
				"hours": "11:00 AM - 11:30 PM"
			},
			{
				"day": "Tuesday",
				"hours": "11:00 AM - 11:30 PM"
			},
			{
				"day": "Wednesday",
				"hours": "11:00 AM - 11:30 PM"
			},
			{
				"day": "Thursday",
				"hours": "11:00 AM - 12:00 AM"
			},
			{
				"day": "Friday",
				"hours": "11:00 AM - 1:00 AM"
			},
			{
				"day": "Saturday",
				"hours": "11:00 AM - 1:00 AM"
			}
		],
		"externalIds": {
			"tripadvisor": "1401899",
			"safegraph": "22x-222@4hx-2ys-zzz",
			"foursquare": "4b09a536f964a520ee1a23e3"
		},
		"paying": false,
		"mapboxId": "dXJuOm1ieHBvaTphMTdkYWNhNi1mMTg5LTQzODQtOWUyYy05YTE2OGU5NDVjYjY",
		"userId": null,
		"createdAt": "2024-04-18T16:47:03.000Z"
	},
	{
		"id": "st3sk0b29iitcja",
		"slug": "the-mad-hatter-edinburgh-eh3-8dy",
		"name": "The Mad Hatter",
		"image": "https://media-cdn.tripadvisor.com/media/photo-s/14/54/3a/f4/photo0jpg.jpg",
		"description": null,
		"latitude": 55.946433,
		"longitude": -3.214171,
		"street": "8 Torphichen Place",
		"postcode": "EH3 8DY",
		"city": "Edinburgh",
		"country": "United Kingdom",
		"phone": "+44 131 228 6852",
		"website": "http://www.themadhatterbaredinburgh.com/",
		"facebook": null,
		"twitter": null,
		"instagram": null,
		"opening_hours": [
			{
				"day": "Sunday",
				"hours": "5:00 PM - 11:00 PM"
			},
			{
				"day": "Monday",
				"hours": "5:00 PM - 12:00 AM"
			},
			{
				"day": "Tuesday",
				"hours": "5:00 PM - 12:00 AM"
			},
			{
				"day": "Wednesday",
				"hours": "5:00 PM - 12:00 AM"
			},
			{
				"day": "Thursday",
				"hours": "5:00 PM - 12:00 AM"
			},
			{
				"day": "Friday",
				"hours": "2:00 PM - 12:00 AM"
			},
			{
				"day": "Saturday",
				"hours": "5:00 PM - 11:00 PM"
			}
		],
		"externalIds": {
			"safegraph": "226-224@4hx-2yn-7qz",
			"tripadvisor": "6502037",
			"foursquare": "5319f317498e9f7011859bad"
		},
		"paying": false,
		"mapboxId": "dXJuOm1ieHBvaTo5NDhlMGMwNC1mYThkLTQyOTMtYjY1NS05MjRjMTU4ODE0OGQ",
		"userId": null,
		"createdAt": "2024-04-18T16:47:03.000Z"
	},
	{
		"id": "qu5z2mu4iopp8va",
		"slug": "the-mash-tun-brighton-bn1-1uf",
		"name": "The Mash Tun",
		"image": "https://media-cdn.tripadvisor.com/media/photo-s/09/ce/05/2d/the-mash-tun.jpg",
		"description": null,
		"latitude": 50.824032,
		"longitude": -0.139117,
		"street": "1 Church Street",
		"postcode": "BN1 1UF",
		"city": "Brighton",
		"country": "United Kingdom",
		"phone": "+44 1273 684951",
		"website": "http://www.mashtun.pub",
		"facebook": null,
		"twitter": null,
		"instagram": null,
		"opening_hours": [
			{
				"day": "Sunday",
				"hours": "12:00 PM - 2:00 AM"
			},
			{
				"day": "Monday",
				"hours": "12:00 PM - 2:00 AM"
			},
			{
				"day": "Tuesday",
				"hours": "12:00 PM - 2:00 AM"
			},
			{
				"day": "Wednesday",
				"hours": "12:00 PM - 2:00 AM"
			},
			{
				"day": "Thursday",
				"hours": "12:00 PM - 2:00 AM"
			},
			{
				"day": "Friday",
				"hours": "12:00 PM - 3:00 AM"
			},
			{
				"day": "Saturday",
				"hours": "12:00 PM - 3:00 AM"
			}
		],
		"externalIds": {
			"safegraph": "zzy-22r@4hh-wwq-cwk",
			"tripadvisor": "6017890",
			"foursquare": "4b058845f964a52029bb22e3"
		},
		"paying": false,
		"mapboxId": "dXJuOm1ieHBvaTowNjZmYTI3OC1iNjU4LTQxYmYtYTQ3Ny01NzIwOTk2ZDRlMTM",
		"userId": null,
		"createdAt": "2024-04-18T16:47:05.000Z"
	},
	{
		"id": "uof1n2rfnt7nb7u",
		"slug": "the-mash-tun-aberlour-ab38-9qp",
		"name": "The Mash Tun",
		"image": "https://media-cdn.tripadvisor.com/media/photo-s/2b/0b/4f/9d/caption.jpg",
		"description": null,
		"latitude": 57.47084,
		"longitude": -3.227214,
		"street": "8 Broomfield Square Speyside",
		"postcode": "AB38 9QP",
		"city": "Aberlour",
		"country": "United Kingdom",
		"phone": "+44 1340 881771",
		"website": "http://www.mashtun-aberlour.com/",
		"facebook": null,
		"twitter": null,
		"instagram": null,
		"opening_hours": null,
		"externalIds": {
			"foursquare": "4c6ab4dca3932c7a12ebfdf4",
			"tripadvisor": "672367",
			"safegraph": "224-222@4h7-6tt-5zz"
		},
		"paying": false,
		"mapboxId": "dXJuOm1ieHBvaTo5OGQwNjU2OC1jZTIzLTQxNWItYjMzOC1jODFkOTQ5MDE1OWM",
		"userId": null,
		"createdAt": "2024-04-18T16:47:05.000Z"
	},
	{
		"id": "i9hf6346032hyg9",
		"slug": "first-national-motor-finance-edinburgh-eh11-4dh",
		"name": "First National Motor Finance",
		"image": null,
		"description": null,
		"latitude": 55.922453,
		"longitude": -3.305661,
		"street": "11 Mid New Cultins",
		"postcode": "EH11 4DH",
		"city": "Edinburgh",
		"country": "United Kingdom",
		"phone": "0131 458 2970",
		"website": null,
		"facebook": null,
		"twitter": null,
		"instagram": null,
		"opening_hours": null,
		"externalIds": {
			"foursquare": "7cee661859fb4982f6f042c1",
			"safegraph": "zzy-222@4hx-2x5-vzz"
		},
		"paying": false,
		"mapboxId": "dXJuOm1ieHBvaTpkMjVkNDFmYy0wMjUxLTRiOTItOTNiZC04MTExZWNlYzExMzI",
		"userId": null,
		"createdAt": "2024-04-18T16:47:16.000Z"
	},
	{
		"id": "m10w7xkpke9hfen",
		"slug": "finnegans-wake-edinburgh-eh1-2he",
		"name": "Finnegan's Wake",
		"image": "https://media-cdn.tripadvisor.com/media/photo-s/0c/b7/79/bc/standard-irish-pub-but.jpg",
		"description": null,
		"latitude": 55.948514,
		"longitude": -3.193558,
		"street": "9B Victoria Street",
		"postcode": "EH1 2HE",
		"city": "Edinburgh",
		"country": "United Kingdom",
		"phone": "+44 131 225 9348",
		"website": "http://www.finnegans-wake.co.uk/",
		"facebook": null,
		"twitter": null,
		"instagram": null,
		"opening_hours": [
			{
				"day": "Sunday",
				"hours": "6:00 PM - 1:00 AM"
			},
			{
				"day": "Monday",
				"hours": "6:00 PM - 1:00 AM"
			},
			{
				"day": "Tuesday",
				"hours": "6:00 PM - 1:00 AM"
			},
			{
				"day": "Wednesday",
				"hours": "6:00 PM - 1:00 AM"
			},
			{
				"day": "Thursday",
				"hours": "12:00 PM - 1:00 AM"
			},
			{
				"day": "Friday",
				"hours": "12:00 PM - 1:00 AM"
			},
			{
				"day": "Saturday",
				"hours": "1:00 PM - 1:00 AM"
			}
		],
		"externalIds": {
			"foursquare": "4c3db7d37d002d7fb41cb018",
			"tripadvisor": "3427523",
			"safegraph": "zzw-222@4hx-2yt-8jv"
		},
		"paying": false,
		"mapboxId": "dXJuOm1ieHBvaTpiYjgxZWE4My01MDA3LTRhMDQtYjc2Mi1jZGJlYmM4ODU5Y2Q",
		"userId": null,
		"createdAt": "2024-04-18T16:47:16.000Z"
	},
	{
		"id": "wgwytyl4j9ogoen",
		"slug": "finnegans-sandwich-bar-edinburgh-eh2-4qs",
		"name": "Finnegans Sandwich Bar",
		"image": null,
		"description": null,
		"latitude": 55.951079,
		"longitude": -3.209821,
		"street": "28 Queensferry Street",
		"postcode": "EH2 4QS",
		"city": "Edinburgh",
		"country": "United Kingdom",
		"phone": "+441312265005",
		"website": null,
		"facebook": null,
		"twitter": null,
		"instagram": null,
		"opening_hours": null,
		"externalIds": {
			"safegraph": "233-222@4hx-2yk-j5f",
			"foursquare": "4bf3c673706e20a17a85a898"
		},
		"paying": false,
		"mapboxId": "dXJuOm1ieHBvaTplYTFjNDAzMS05MmRlLTQ5ZjEtYmFhMi04ZGFjYzQyMzA3MzQ",
		"userId": null,
		"createdAt": "2024-04-18T16:47:16.000Z"
	},
	{
		"id": "k28nylqbse9xsos",
		"slug": "finnegans-sandwich-bar-edinburgh-eh3-5dq",
		"name": "Finnegans Sandwich Bar",
		"image": null,
		"description": null,
		"latitude": 55.959963,
		"longitude": -3.200985,
		"street": "130 Dundas Street",
		"postcode": "EH3 5DQ",
		"city": "Edinburgh",
		"country": "United Kingdom",
		"phone": "+441315566732",
		"website": null,
		"facebook": null,
		"twitter": null,
		"instagram": null,
		"opening_hours": null,
		"externalIds": {
			"foursquare": "4c08e82f009a0f47d1c3e6bf",
			"safegraph": "22r-222@4hx-2yv-4y9"
		},
		"paying": false,
		"mapboxId": "dXJuOm1ieHBvaToxNDM2ZWVkZi02NjA5LTQ5M2MtODA5MS1lMTI0ZDFjYmIyMDE",
		"userId": null,
		"createdAt": "2024-04-18T16:47:16.000Z"
	},
	{
		"id": "jqvqppjcp5id7h7",
		"slug": "ravelston-golf-club-edinburgh-eh4-3nz",
		"name": "Ravelston Golf Club",
		"image": null,
		"description": null,
		"latitude": 55.954459,
		"longitude": -3.258143,
		"street": "24 Ravelston Dykes Road",
		"postcode": "EH4 3NZ",
		"city": "Edinburgh",
		"country": "United Kingdom",
		"phone": "+441313152486",
		"website": null,
		"facebook": null,
		"twitter": null,
		"instagram": null,
		"opening_hours": null,
		"externalIds": {
			"safegraph": "222-222@4hx-2yp-975"
		},
		"paying": false,
		"mapboxId": "dXJuOm1ieHBvaTo5NDgxMGJlNC02NWUxLTRkMGEtOGJhYS00ZGIzMDlhMDY0NDI",
		"userId": null,
		"createdAt": "2024-04-18T16:47:23.000Z"
	},
	{
		"id": "vaen36xzi5zvreg",
		"slug": "american-golf-edinburgh-eh12-7uq",
		"name": "American Golf",
		"image": null,
		"description": null,
		"latitude": 55.941283,
		"longitude": -3.293026,
		"street": "16 Meadow Place Road",
		"postcode": "EH12 7UQ",
		"city": "Edinburgh",
		"country": "United Kingdom",
		"phone": "+441312021220",
		"website": "http://www.americangolf.co.uk",
		"facebook": null,
		"twitter": null,
		"instagram": null,
		"opening_hours": null,
		"externalIds": {
			"safegraph": "zzy-222@4hx-2zg-5mk",
			"foursquare": "4dde301f1838779139973eb4"
		},
		"paying": false,
		"mapboxId": "dXJuOm1ieHBvaTo5N2UyMmFmOS1iMjljLTQ0YjAtYjY3My0yMDgxYjM0NTc2MDE",
		"userId": null,
		"createdAt": "2024-04-18T16:47:23.000Z"
	},
	{
		"id": "8pumq4bb09hsjty",
		"slug": "murrayfield-golf-club-edinburgh-eh12-6eu",
		"name": "Murrayfield Golf Club",
		"image": "https://media-cdn.tripadvisor.com/media/photo-s/29/91/9f/c5/caption.jpg",
		"description": null,
		"latitude": 55.94989,
		"longitude": -3.25091,
		"street": "43 Murrayfield Road",
		"postcode": "EH12 6EU",
		"city": "Edinburgh",
		"country": "United Kingdom",
		"phone": "+44 131 337 3478",
		"website": "http://www.murrayfieldgolfclub.co.uk/",
		"facebook": null,
		"twitter": null,
		"instagram": null,
		"opening_hours": [
			{
				"day": "Sunday",
				"hours": "10:00 AM - 3:00 PM"
			},
			{
				"day": "Monday",
				"hours": "10:00 AM - 3:00 PM"
			},
			{
				"day": "Tuesday",
				"hours": "10:00 AM - 3:00 PM"
			},
			{
				"day": "Wednesday",
				"hours": "10:00 AM - 3:00 PM"
			},
			{
				"day": "Thursday",
				"hours": "10:00 AM - 3:00 PM"
			},
			{
				"day": "Friday",
				"hours": "9:30 AM - 4:00 PM"
			},
			{
				"day": "Saturday",
				"hours": "9:30 AM - 4:00 PM"
			}
		],
		"externalIds": {
			"safegraph": "222-223@4hx-2yp-dd9",
			"tripadvisor": "6631340",
			"foursquare": "4f9d4bd6e4b08ea03a144731"
		},
		"paying": false,
		"mapboxId": "dXJuOm1ieHBvaTozOGFmZTY0OS0zYWRiLTQzOWYtODkxOC05YzgwYTEyODNjZjI",
		"userId": null,
		"createdAt": "2024-04-18T16:47:23.000Z"
	},
	{
		"id": "qtw1m5j51vamc2m",
		"slug": "silverknowes-golf-course-edinburgh-eh4-5er",
		"name": "Silverknowes Golf Course",
		"image": "https://media-cdn.tripadvisor.com/media/photo-s/07/fd/da/29/accurate-approach-needed.jpg",
		"description": null,
		"latitude": 55.97297,
		"longitude": -3.2725,
		"street": "118 Silverknowes Road",
		"postcode": "EH4 5ER",
		"city": "Edinburgh",
		"country": "United Kingdom",
		"phone": "+44 131 458 2100",
		"website": "http://www.edinburghleisure.co.uk/venues/silverknowes-golf-course",
		"facebook": null,
		"twitter": null,
		"instagram": null,
		"opening_hours": null,
		"externalIds": {
			"tripadvisor": "564992",
			"foursquare": "4b058826f964a52019b522e3"
		},
		"paying": false,
		"mapboxId": "dXJuOm1ieHBvaTo5ZWY0YTdiNS1kMmI3LTQ3MTEtYjNlZS05NjBlN2MwZTlkOWU",
		"userId": null,
		"createdAt": "2024-04-18T16:47:23.000Z"
	},
	{
		"id": "fn5vv5lcco5orhe",
		"slug": "goldsmiths-edinburgh-eh15-3by",
		"name": "Goldsmiths",
		"image": null,
		"description": null,
		"latitude": 55.946793,
		"longitude": -3.111322,
		"street": "60 Kinnaird Park Unit 34a",
		"postcode": "EH15 3BY",
		"city": "Edinburgh",
		"country": "United Kingdom",
		"phone": "+441316572530",
		"website": null,
		"facebook": null,
		"twitter": null,
		"instagram": null,
		"opening_hours": null,
		"externalIds": {
			"safegraph": "zzy-222@4hw-z4s-j35"
		},
		"paying": false,
		"mapboxId": "dXJuOm1ieHBvaTpiM2RlZTMzZC04YmRmLTQwZWYtODQyMy1iN2ZlODFjZjhlNzA",
		"userId": null,
		"createdAt": "2024-04-18T16:47:24.000Z"
	},
	{
		"id": "d168uxs3i8up1fc",
		"slug": "golf-tavern-burntisland-ky3-9dy",
		"name": "Golf Tavern",
		"image": null,
		"description": null,
		"latitude": 56.059457,
		"longitude": -3.230573,
		"street": "17 Links Pl",
		"postcode": "KY3 9DY",
		"city": "Burntisland",
		"country": "United Kingdom",
		"phone": "01592 873884",
		"website": "http://golftavern.co.uk",
		"facebook": null,
		"twitter": null,
		"instagram": null,
		"opening_hours": null,
		"externalIds": {
			"foursquare": "524165f96500470da8581ef4"
		},
		"paying": false,
		"mapboxId": "dXJuOm1ieHBvaTowNTMwZjViNi01NDQyLTQzOWQtOTU5Ny1lM2ZmN2I2MGRlZmI",
		"userId": null,
		"createdAt": "2024-04-18T16:47:24.000Z"
	},
	{
		"id": "esg83wrfnlk8hdq",
		"slug": "the-golf-tavern-edinburgh-eh10-4hr",
		"name": "The Golf Tavern",
		"image": "https://media-cdn.tripadvisor.com/media/photo-s/07/c0/dc/b4/the-golf-tavern.jpg",
		"description": null,
		"latitude": 55.940031,
		"longitude": -3.20403,
		"street": "30-31 Wright's Houses Bruntsfield",
		"postcode": "EH10 4HR",
		"city": "Edinburgh",
		"country": "United Kingdom",
		"phone": "+44 131 221 5221",
		"website": "http://golftavern.co.uk",
		"facebook": null,
		"twitter": null,
		"instagram": null,
		"opening_hours": [
			{
				"day": "Sunday",
				"hours": "Closed"
			},
			{
				"day": "Monday",
				"hours": "12:00 PM - 12:00 AM"
			},
			{
				"day": "Tuesday",
				"hours": "12:00 PM - 12:00 AM"
			},
			{
				"day": "Wednesday",
				"hours": "12:00 PM - 12:00 AM"
			},
			{
				"day": "Thursday",
				"hours": "12:00 PM - 12:00 AM"
			},
			{
				"day": "Friday",
				"hours": "11:00 AM - 12:00 AM"
			},
			{
				"day": "Saturday",
				"hours": "11:00 AM - 12:00 AM"
			}
		],
		"externalIds": {
			"tripadvisor": "2422897",
			"foursquare": "4bdd76d14ffaa5937e786ff7",
			"safegraph": "227-222@4hx-2ym-33q"
		},
		"paying": false,
		"mapboxId": "dXJuOm1ieHBvaToxNzQ4MzFjNy1jZjFlLTQ4ZmQtYmRmNi1kMWJjZTgwYTQ4MzY",
		"userId": null,
		"createdAt": "2024-04-18T16:47:24.000Z"
	},
	{
		"id": "fh1x5e5gtdiayg6",
		"slug": "the-scottish-golf-travel-service-edinburgh-eh1-2bb",
		"name": "The Scottish Golf & Travel Service",
		"image": null,
		"description": null,
		"latitude": 55.948119,
		"longitude": -3.209029,
		"street": "12 Rutland Square",
		"postcode": "EH1 2BB",
		"city": "Edinburgh",
		"country": "United Kingdom",
		"phone": "+441312211500",
		"website": null,
		"facebook": null,
		"twitter": null,
		"instagram": null,
		"opening_hours": null,
		"externalIds": {
			"safegraph": "222-224@4hx-2yt-jjv",
			"foursquare": "7aeaf2593f47493b6becfe90"
		},
		"paying": false,
		"mapboxId": "dXJuOm1ieHBvaTo0YWVmOWJiMC0xZWZlLTQzMmUtOGJlMy1iMGQzNmFmOWRkYzQ",
		"userId": null,
		"createdAt": "2024-04-18T16:47:24.000Z"
	},
	{
		"id": "0wgmtwk5fua4j0q",
		"slug": "tayleur-mayde-golf-tours-edinburgh-eh2-3dn",
		"name": "Tayleur Mayde Golf Tours",
		"image": null,
		"description": null,
		"latitude": 55.951864,
		"longitude": -3.202846,
		"street": "21 Castle Street",
		"postcode": "EH2 3DN",
		"city": "Edinburgh",
		"country": "United Kingdom",
		"phone": "+441312259114",
		"website": "http://www.tayleurmayde.com",
		"facebook": null,
		"twitter": null,
		"instagram": null,
		"opening_hours": null,
		"externalIds": {
			"foursquare": "fa6ced9d07ea43858524766f",
			"safegraph": "223-223@4hx-2yt-ks5"
		},
		"paying": false,
		"mapboxId": "dXJuOm1ieHBvaTpkYWQwOTc5Yi02ZjMzLTQ3MGQtOTFjNS1mMGNmZWI4OWU3ZjE",
		"userId": null,
		"createdAt": "2024-04-18T16:47:24.000Z"
	},
	{
		"id": "qgubjk25zycp50k",
		"slug": "tayleur-mayde-golf-tours-edinburgh-eh2-1aw",
		"name": "Tayleur Mayde Golf Tours",
		"image": null,
		"description": null,
		"latitude": 55.955359,
		"longitude": -3.194481,
		"street": "7-9 North St David St",
		"postcode": "EH2 1AW",
		"city": "Edinburgh",
		"country": "United Kingdom",
		"phone": "0131 524 9554",
		"website": "http://www.tayleurmayde.com",
		"facebook": null,
		"twitter": null,
		"instagram": null,
		"opening_hours": null,
		"externalIds": {
			"foursquare": "9cf926cb5d1543e9fbdf487d"
		},
		"paying": false,
		"mapboxId": "dXJuOm1ieHBvaTozMGM3MmY2My00MTg1LTRhYzMtYjE4OC00NjY3ODE1YzY1OTk",
		"userId": null,
		"createdAt": "2024-04-18T16:47:24.000Z"
	},
	{
		"id": "7k5jrukvteq7zcb",
		"slug": "golf-tavern-cupar-ky15-5jf",
		"name": "Golf Tavern",
		"image": null,
		"description": null,
		"latitude": 56.314521,
		"longitude": -3.009236,
		"street": "11 South Road",
		"postcode": "KY15 5JF",
		"city": "Cupar",
		"country": "United Kingdom",
		"phone": "+441334654233",
		"website": "http://www.belhaven.co.uk",
		"facebook": null,
		"twitter": null,
		"instagram": null,
		"opening_hours": null,
		"externalIds": {
			"foursquare": "51cf5491498e3b445ec4ed34",
			"safegraph": "22b-222@4hw-xvv-2c5"
		},
		"paying": false,
		"mapboxId": "dXJuOm1ieHBvaTplMmNiZTJlMi1jZjhhLTRlYjctYTA4OS0wMTYzZjI3YmY5NTU",
		"userId": null,
		"createdAt": "2024-04-18T16:47:24.000Z"
	},
	{
		"id": "savw7gj5ecrkn0e",
		"slug": "von-hippel-lindau-kirkcaldy-ky1-2bx",
		"name": "Von Hippel-Lindau",
		"image": null,
		"description": null,
		"latitude": 56.127459,
		"longitude": -3.138866,
		"street": "45-1 Ramsey Rd",
		"postcode": "KY1 2BX",
		"city": "Kirkcaldy",
		"country": "United Kingdom",
		"phone": "07425 900580",
		"website": "https://www.creative-biolabs.com/protac/ligand-screening-for-e3-ligase.htm",
		"facebook": null,
		"twitter": null,
		"instagram": null,
		"opening_hours": null,
		"externalIds": {
			"foursquare": "00ff0739abda4c47a84bbc7c"
		},
		"paying": false,
		"mapboxId": "dXJuOm1ieHBvaTo1MDI1ZmNmYy0yODU2LTQ2NTQtYTA3OS1iMzZiZmQ3ZmUwMmI",
		"userId": null,
		"createdAt": "2024-04-18T16:47:34.000Z"
	},
	{
		"id": "2qq9rry0trxp0ry",
		"slug": "farmers-insurance-lee-vontungeln-oklahoma-city-73170",
		"name": "Farmers Insurance - Lee Vontungeln-",
		"image": null,
		"description": null,
		"latitude": 35.349066,
		"longitude": -97.564335,
		"street": "2833 SW 119th St",
		"postcode": "73170",
		"city": "Oklahoma City",
		"country": "United States",
		"phone": "(405) 703-0826",
		"website": "http://www.farmers.com/",
		"facebook": null,
		"twitter": null,
		"instagram": null,
		"opening_hours": null,
		"externalIds": {
			"foursquare": "04e982c567384843f780c02a"
		},
		"paying": false,
		"mapboxId": "dXJuOm1ieHBvaTpmODVlNWM2Ny1lMGRkLTQ1MDgtYmMyMy0xNzRkZDI3ODFkZmM",
		"userId": null,
		"createdAt": "2024-04-18T16:47:34.000Z"
	},
	{
		"id": "ijdz0us9fkcm407",
		"slug": "vont-westbrook-04092",
		"name": "VONT",
		"image": null,
		"description": null,
		"latitude": 43.677021,
		"longitude": -70.363852,
		"street": "17 Ash St",
		"postcode": "04092",
		"city": "Westbrook",
		"country": "United States",
		"phone": "+12078878333",
		"website": "http://www.vontweb.com",
		"facebook": null,
		"twitter": null,
		"instagram": null,
		"opening_hours": null,
		"externalIds": {
			"foursquare": "58831167266c11339cecf9ec",
			"safegraph": "223-225@62k-vr5-c89"
		},
		"paying": false,
		"mapboxId": "dXJuOm1ieHBvaTo0NWVhYWQ4ZC1jMTFmLTQ4NzEtYTQ5MS0zZGEzYmI5MzU3ZTM",
		"userId": null,
		"createdAt": "2024-04-18T16:47:34.000Z"
	},
	{
		"id": "kcvnuehhhwk4b1w",
		"slug": "vontour-crane-rigging-lincoln-95648",
		"name": "VonTour Crane & Rigging",
		"image": null,
		"description": null,
		"latitude": 38.969573,
		"longitude": -121.258687,
		"street": "1334 Kilaga Springs Rd",
		"postcode": "95648",
		"city": "Lincoln",
		"country": "United States",
		"phone": "(916) 296-5370",
		"website": "http://www.vontourinc.com",
		"facebook": null,
		"twitter": null,
		"instagram": null,
		"opening_hours": null,
		"externalIds": {
			"foursquare": "579b3d67498e7375aa3f5f56"
		},
		"paying": false,
		"mapboxId": "dXJuOm1ieHBvaTpkZjc2NzUxYS1kMWI0LTRjZGItYmE4Ny1jMGU0NDBjZjIxZmY",
		"userId": null,
		"createdAt": "2024-04-18T16:47:34.000Z"
	},
	{
		"id": "yxfp2srwyms4bft",
		"slug": "vontobel-gerard-allaman-1165",
		"name": "Vontobel Gerard",
		"image": null,
		"description": null,
		"latitude": 46.471045,
		"longitude": 6.395332,
		"street": "Place De L'Eglise 5",
		"postcode": "1165",
		"city": "Allaman",
		"country": "Switzerland",
		"phone": "021 807 39 07",
		"website": "http://vignoble-gerard-allaman.mykom.ch",
		"facebook": null,
		"twitter": null,
		"instagram": null,
		"opening_hours": null,
		"externalIds": {
			"foursquare": "5b6b30b0d69ed0002cb3c9a3",
			"safegraph": "zzy-222@53c-b4h-r8v"
		},
		"paying": false,
		"mapboxId": "dXJuOm1ieHBvaTo2N2RiODk5MC0wMWRhLTRiNWYtYTU0Zi1kNDYwODU5NmIyZjc",
		"userId": null,
		"createdAt": "2024-04-18T16:47:34.000Z"
	},
	{
		"id": "4dvr4f6lik84941",
		"slug": "von-tobel-schererville-46375",
		"name": "Von Tobel",
		"image": null,
		"description": null,
		"latitude": 41.481042,
		"longitude": -87.433095,
		"street": "751 E US Highway 30",
		"postcode": "46375",
		"city": "Schererville",
		"country": "United States",
		"phone": "+12193222222",
		"website": "http://vontobels.com",
		"facebook": null,
		"twitter": null,
		"instagram": null,
		"opening_hours": null,
		"externalIds": {
			"safegraph": "229-222@5pv-ykv-m6k",
			"foursquare": "4cea887d678aa0934df5f3ea"
		},
		"paying": false,
		"mapboxId": "dXJuOm1ieHBvaTpiNzAxY2RkNi04MjNjLTQzMTQtYWIwZS00MmZjYzU1ZjZiMTc",
		"userId": null,
		"createdAt": "2024-04-18T16:47:34.000Z"
	},
	{
		"id": "alq60ezv6xxnzxv",
		"slug": "von-tobel-lafayette-47904",
		"name": "Von Tobel",
		"image": null,
		"description": null,
		"latitude": 40.420157,
		"longitude": -86.859726,
		"street": "319 N Earl Ave",
		"postcode": "47904",
		"city": "Lafayette",
		"country": "United States",
		"phone": "+17654481525",
		"website": "https://vontobels.com/vontobel-lafayette-indiana",
		"facebook": null,
		"twitter": null,
		"instagram": null,
		"opening_hours": null,
		"externalIds": {
			"safegraph": "222-222@5pw-c3y-pd9",
			"foursquare": "4c4b4e85712ac9281cf5b76c"
		},
		"paying": false,
		"mapboxId": "dXJuOm1ieHBvaTozZjYwOTYxYy1jMjA2LTQyZjQtYWFmNy1lZGIxYzk1NzliOGQ",
		"userId": null,
		"createdAt": "2024-04-18T16:47:34.000Z"
	},
	{
		"id": "vm2qnmxscfiqfsj",
		"slug": "vontobel-fonds-services-ag-zrich-8002",
		"name": "Vontobel Fonds Services AG",
		"image": null,
		"description": null,
		"latitude": 47.365093,
		"longitude": 8.534658,
		"street": "Gotthardstr. 43",
		"postcode": "8002",
		"city": "Zürich",
		"country": "Switzerland",
		"phone": "044 283 76 55",
		"website": "http://www.vontobel.com",
		"facebook": null,
		"twitter": null,
		"instagram": null,
		"opening_hours": null,
		"externalIds": {
			"foursquare": "2713df967bdd44906a53c990"
		},
		"paying": false,
		"mapboxId": "dXJuOm1ieHBvaTpkOGQwMmEyMS02MzAwLTRlMTctOTAzNC0wMjc5YWZjOTE1NzM",
		"userId": null,
		"createdAt": "2024-04-18T16:47:34.000Z"
	},
	{
		"id": "89mv3xfe5jqmm91",
		"slug": "shulounda-vontoure-chesapeake-23321",
		"name": "Shulounda Vontoure",
		"image": null,
		"description": null,
		"latitude": 36.845128,
		"longitude": -76.435817,
		"street": "3211 Calisha Ct",
		"postcode": "23321",
		"city": "Chesapeake",
		"country": "United States",
		"phone": "+16016227206",
		"website": null,
		"facebook": null,
		"twitter": null,
		"instagram": null,
		"opening_hours": null,
		"externalIds": {
			"safegraph": "225-222@64h-vs3-5mk"
		},
		"paying": false,
		"mapboxId": "dXJuOm1ieHBvaTowMjdmYTIxOS03MDA2LTRmYmEtYjRmMy0zMWVkMDk3ZGU3NzE",
		"userId": null,
		"createdAt": "2024-04-18T16:47:34.000Z"
	},
	{
		"id": "73lfktqp26zihlg",
		"slug": "ed-von-tobel-middle-school-las-vegas-89115",
		"name": "Ed Von Tobel Middle School",
		"image": null,
		"description": null,
		"latitude": 36.204369,
		"longitude": -115.09756,
		"street": "2436 N Pecos Rd",
		"postcode": "89115",
		"city": "Las Vegas",
		"country": "United States",
		"phone": "+17027997280",
		"website": "http://ccsd.net",
		"facebook": null,
		"twitter": null,
		"instagram": null,
		"opening_hours": null,
		"externalIds": {
			"safegraph": "zzw-222@5yv-cbk-pn5",
			"foursquare": "4bbb7864e6e7b7137819f879"
		},
		"paying": false,
		"mapboxId": "dXJuOm1ieHBvaToxNjNlMGI5Zi0yZTJlLTQ2MWItOGY3Yy1mOTQ2ZTIzMDE2ZTE",
		"userId": null,
		"createdAt": "2024-04-18T16:47:34.000Z"
	},
	{
		"id": "hhagxin5hjio4kx",
		"slug": "bank-vontobel-zrich-8002",
		"name": "Bank Vontobel",
		"image": null,
		"description": null,
		"latitude": 47.364972,
		"longitude": 8.534627,
		"street": "Gotthardstrasse 43",
		"postcode": "8002",
		"city": "Zürich",
		"country": "Switzerland",
		"phone": "058 283 71 11",
		"website": "http://www.vontobel.com",
		"facebook": null,
		"twitter": null,
		"instagram": null,
		"opening_hours": null,
		"externalIds": {
			"safegraph": "zzy-23d@53g-s3q-z9f",
			"foursquare": "4bf3d8ba3f86c9b61084b21c"
		},
		"paying": false,
		"mapboxId": "dXJuOm1ieHBvaTpjZTRiOTdiYS1hYjA4LTRhMGEtODE1ZC1jYTQwOTIwNWI0NDU",
		"userId": null,
		"createdAt": "2024-04-18T16:47:34.000Z"
	},
	{
		"id": "gjoyxggx1btr57f",
		"slug": "m-stephane-voitoux-besanon-25000",
		"name": "M Stephane Voitoux",
		"image": null,
		"description": null,
		"latitude": 47.235101,
		"longitude": 6.028597,
		"street": "126 Grande rue",
		"postcode": "25000",
		"city": "Besançon",
		"country": "France",
		"phone": "03 81 81 80 41",
		"website": "http://www.florajet.com",
		"facebook": null,
		"twitter": null,
		"instagram": null,
		"opening_hours": null,
		"externalIds": {
			"foursquare": "371a53ef149341b62e9f7b9b"
		},
		"paying": false,
		"mapboxId": "dXJuOm1ieHBvaTphZWM0ZWRmMi1mY2EwLTQxZTEtODc3MS0wMmQ0NmVhNDdmZDE",
		"userId": null,
		"createdAt": "2024-04-18T16:47:35.000Z"
	},
	{
		"id": "o5u52jmjw9079fi",
		"slug": "the-venue-edinburgh-eh8-9al",
		"name": "The Venue",
		"image": null,
		"description": null,
		"latitude": 55.946099,
		"longitude": -3.188075,
		"street": "5/2 Bristo Square",
		"postcode": "EH8 9AL",
		"city": "Edinburgh",
		"country": "United Kingdom",
		"phone": null,
		"website": "https://www.eusa.ed.ac.uk/eatdrink/potterrow/bars-and-cafes/",
		"facebook": null,
		"twitter": null,
		"instagram": null,
		"opening_hours": null,
		"externalIds": {
			"tripadvisor": "10060180"
		},
		"paying": false,
		"mapboxId": "dXJuOm1ieHBvaToyYmI4M2I2YS1kNWU1LTRjNDktYjIyNy05MjkyOTgyYzg4MDg",
		"userId": null,
		"createdAt": "2024-04-18T16:47:39.000Z"
	},
	{
		"id": "g2miifxm8mpycre",
		"slug": "the-ventoux-edinburgh-eh3-9jh",
		"name": "The Ventoux",
		"image": null,
		"description": null,
		"latitude": 55.94367,
		"longitude": -3.202774,
		"street": "2-4 Brougham Street",
		"postcode": "EH3 9JH",
		"city": "Edinburgh",
		"country": "United Kingdom",
		"phone": "+441312295066",
		"website": "https://food.list.co.uk/place/44671-the-ventoux",
		"facebook": null,
		"twitter": null,
		"instagram": null,
		"opening_hours": null,
		"externalIds": {
			"safegraph": "224-223@4hx-2ym-v75",
			"foursquare": "4fbab0cfe4b0d636a57445a9"
		},
		"paying": false,
		"mapboxId": "dXJuOm1ieHBvaTowZDhiMmY2Ny1iZGI2LTQxZjgtODdjZC1kNzgxMjY1NDU5MGE",
		"userId": null,
		"createdAt": "2024-04-18T16:47:39.000Z"
	},
	{
		"id": "olvmzip5saxqmqb",
		"slug": "thistle-ventures-limited-edinburgh-eh1-2bb",
		"name": "Thistle Ventures Limited",
		"image": null,
		"description": null,
		"latitude": 55.948393,
		"longitude": -3.209746,
		"street": "19 Rutland Square Midlothian",
		"postcode": "EH1 2BB",
		"city": "Edinburgh",
		"country": "United Kingdom",
		"phone": "0131 629 0272",
		"website": null,
		"facebook": null,
		"twitter": null,
		"instagram": null,
		"opening_hours": null,
		"externalIds": {
			"foursquare": "f4fb59f2c1bc4836f9767e71"
		},
		"paying": false,
		"mapboxId": "dXJuOm1ieHBvaTo0YWI5OGRjOS03YzViLTRiOTMtYWZkMS0yMWVmOTdkNWI1YWI",
		"userId": null,
		"createdAt": "2024-04-18T16:47:39.000Z"
	},
	{
		"id": "8zfsjw0c4cdoivy",
		"slug": "the-ventou-bicycle-clothing-melbourne-3193",
		"name": "The Ventou Bicycle Clothing",
		"image": null,
		"description": null,
		"latitude": -37.976062,
		"longitude": 145.016354,
		"street": "302 Beach Rd",
		"postcode": "3193",
		"city": "Melbourne",
		"country": "Australia",
		"phone": "+61395895332",
		"website": null,
		"facebook": null,
		"twitter": null,
		"instagram": null,
		"opening_hours": null,
		"externalIds": {
			"safegraph": "zzy-24x@nhx-swh-6tv"
		},
		"paying": false,
		"mapboxId": "dXJuOm1ieHBvaToxMjA0NDFkZi0xNDRlLTQ5N2UtODY5Yi1lMmMxYTE0MDIzNWI",
		"userId": null,
		"createdAt": "2024-04-18T16:47:40.000Z"
	},
	{
		"id": "uno41p7nub4faqv",
		"slug": "strahcarron-hospice-retail-glasgow-g67-1ng",
		"name": "Strahcarron Hospice Retail",
		"image": null,
		"description": null,
		"latitude": 55.948184,
		"longitude": -3.988741,
		"street": "36-38 Teviot Walk",
		"postcode": "G67 1NG",
		"city": "Glasgow",
		"country": "United Kingdom",
		"phone": "01236 725211",
		"website": "https://www.strathcarronhospice.net",
		"facebook": null,
		"twitter": null,
		"instagram": null,
		"opening_hours": null,
		"externalIds": {
			"foursquare": "9329a47526a04c553a0cc500"
		},
		"paying": false,
		"mapboxId": "dXJuOm1ieHBvaTo5YzE1OGYyMC01NWY5LTQ2ZjktODRkMy1lNWQwYjI0ZjIwMDQ",
		"userId": null,
		"createdAt": "2024-04-18T16:47:49.000Z"
	},
	{
		"id": "m99xjxs5hc5w9a3",
		"slug": "allstate-insurance-loren-clint-strahm-houston-77065",
		"name": "Allstate Insurance: Loren Clint Strahm",
		"image": null,
		"description": null,
		"latitude": 29.918209,
		"longitude": -95.611445,
		"street": "13103 FM 1960 Rd W",
		"postcode": "77065",
		"city": "Houston",
		"country": "United States",
		"phone": "(346) 214-4141",
		"website": "http://www.allstate.com/",
		"facebook": null,
		"twitter": null,
		"instagram": null,
		"opening_hours": null,
		"externalIds": {
			"foursquare": "5c07bc30f00a7000390f5479"
		},
		"paying": false,
		"mapboxId": "dXJuOm1ieHBvaTo3MDljOTc3ZS1mMWQyLTRmMTUtOTQ0NC0yMTBiMTJiNzk3ZDA",
		"userId": null,
		"createdAt": "2024-04-18T16:47:49.000Z"
	},
	{
		"id": "79xrsuq21y1zitu",
		"slug": "strathallan-pharmacy-stirling-fk9-4hg",
		"name": "Strathallan Pharmacy",
		"image": null,
		"description": null,
		"latitude": 56.154585,
		"longitude": -3.945317,
		"street": "65 Henderson Street",
		"postcode": "FK9 4HG",
		"city": "Stirling",
		"country": "United Kingdom",
		"phone": "01786 832313",
		"website": "http://www.strathallanpharmacy.weebly.com",
		"facebook": null,
		"twitter": null,
		"instagram": null,
		"opening_hours": null,
		"externalIds": {
			"foursquare": "5df23672e91ae300084b6280",
			"safegraph": "222-222@4hw-zqv-vfz"
		},
		"paying": false,
		"mapboxId": "dXJuOm1ieHBvaTozN2EzOWZhOC03N2YyLTQzN2EtOWJmYi0wOGQxY2RiNjFiZTk",
		"userId": null,
		"createdAt": "2024-04-18T16:47:49.000Z"
	},
	{
		"id": "o0vyuw1tequ24bz",
		"slug": "strathcona-guesthouse-perth-ph1-5rp",
		"name": "Strathcona Guesthouse",
		"image": "https://media-cdn.tripadvisor.com/media/photo-s/1d/6d/6a/c5/strathcona-guesthouse.jpg",
		"description": null,
		"latitude": 56.402247,
		"longitude": -3.440297,
		"street": "45 Dunkeld Road",
		"postcode": "PH1 5RP",
		"city": "Perth",
		"country": "United Kingdom",
		"phone": "+44 1738 626185",
		"website": "http://www.strathconahouse.co.uk/contact-us/",
		"facebook": null,
		"twitter": null,
		"instagram": null,
		"opening_hours": null,
		"externalIds": {
			"safegraph": "229-222@4hx-5m6-jn5",
			"foursquare": "d87c71ce4527437c54b83883",
			"tripadvisor": "1009681"
		},
		"paying": false,
		"mapboxId": "dXJuOm1ieHBvaTo5YWM5MTMzOC0zMDNkLTQ3ZWMtOTlhYS1jOTdkMWUxZmE5NmQ",
		"userId": null,
		"createdAt": "2024-04-18T16:47:49.000Z"
	},
	{
		"id": "d8k3xko72c6xkm8",
		"slug": "gaststtte-strahtmann-menden-58708",
		"name": "Gaststätte Strahtmann",
		"image": null,
		"description": null,
		"latitude": 51.454363,
		"longitude": 7.790074,
		"street": "Schwitterknapp 7",
		"postcode": "58708",
		"city": "Menden",
		"country": "Germany",
		"phone": "02373 3964400",
		"website": null,
		"facebook": null,
		"twitter": null,
		"instagram": null,
		"opening_hours": null,
		"externalIds": {
			"foursquare": "7d34357085d3466c689903fa"
		},
		"paying": false,
		"mapboxId": "dXJuOm1ieHBvaTo3ZmZlN2I3NS03YzIxLTQ4MDktYjI5Mi00ZDBiNWZlNTkyNmI",
		"userId": null,
		"createdAt": "2024-04-18T16:47:49.000Z"
	},
	{
		"id": "7f2eg0dqqyg8r62",
		"slug": "strathroy-main-po-strathroy-n7g-2r4",
		"name": "Strathroy Main Po",
		"image": null,
		"description": null,
		"latitude": 42.956657,
		"longitude": -81.624787,
		"street": "62 Frank St",
		"postcode": "N7G 2R4",
		"city": "Strathroy",
		"country": "Canada",
		"phone": "(519) 245-1070",
		"website": "http://www.strathroy-caradoc.ca",
		"facebook": null,
		"twitter": null,
		"instagram": null,
		"opening_hours": null,
		"externalIds": {
			"foursquare": "09e178e7b3eb464fda9edd42",
			"safegraph": "228-223@63w-6h9-q9f"
		},
		"paying": false,
		"mapboxId": "dXJuOm1ieHBvaTpiMTM2MjRiMy1hYmVjLTQ1MzYtOGExOC0zMTk2NDZlNzM3ZGM",
		"userId": null,
		"createdAt": "2024-04-18T16:47:49.000Z"
	},
	{
		"id": "d1vqt6yturmq6in",
		"slug": "press-shop-kapelle-straat-ostend-8400",
		"name": "Press Shop Kapelle Straat",
		"image": null,
		"description": null,
		"latitude": 51.230423,
		"longitude": 2.918847,
		"street": "Kapellestraat 28",
		"postcode": "8400",
		"city": "Ostend",
		"country": "Belgium",
		"phone": "+3259511237",
		"website": null,
		"facebook": null,
		"twitter": null,
		"instagram": null,
		"opening_hours": null,
		"externalIds": {
			"safegraph": "zzy-22c@4hj-v33-k2k",
			"foursquare": "5809d6cb38fa2c4dd3d5c659"
		},
		"paying": false,
		"mapboxId": "dXJuOm1ieHBvaTowNWY3MTMwZi05ZDg3LTRjYjUtODEwOC1kYzM3Y2RmODBiNzI",
		"userId": null,
		"createdAt": "2024-04-18T16:47:49.000Z"
	},
	{
		"id": "qjtn85tkkxoip2t",
		"slug": "stratstone-jaguar-edinburgh-eh12-8lh",
		"name": "Stratstone Jaguar",
		"image": null,
		"description": null,
		"latitude": 55.940828,
		"longitude": -3.306238,
		"street": "6 Lonehead Drive Newbridge",
		"postcode": "EH12 8LH",
		"city": "Edinburgh",
		"country": "United Kingdom",
		"phone": "+441313573344",
		"website": "http://www.stratstone.com",
		"facebook": null,
		"twitter": null,
		"instagram": null,
		"opening_hours": null,
		"externalIds": {
			"foursquare": "3424b18c58bf480fc764912d",
			"safegraph": "228-224@4hx-2zg-f9f"
		},
		"paying": false,
		"mapboxId": "dXJuOm1ieHBvaTo0ZDhhZGNiOS00ZDYyLTRmZTMtOGE2NS1jZjc2NDBmZDhhODA",
		"userId": null,
		"createdAt": "2024-04-18T16:47:49.000Z"
	},
	{
		"id": "iv3kpd71zwe0lhv",
		"slug": "strathberry-edinburgh-eh3-7ha",
		"name": "Strathberry",
		"image": "https://media-cdn.tripadvisor.com/media/photo-s/12/44/0a/d9/meghan-markle-and-strathberry.jpg",
		"description": null,
		"latitude": 55.949894,
		"longitude": -3.213329,
		"street": "3 Multrees Walk",
		"postcode": "EH3 7HA",
		"city": "Edinburgh",
		"country": "United Kingdom",
		"phone": "+44 131 290 2690",
		"website": "http://www.strathberry.com",
		"facebook": null,
		"twitter": null,
		"instagram": null,
		"opening_hours": [
			{
				"day": "Sunday",
				"hours": "9:00 AM - 5:00 PM"
			},
			{
				"day": "Monday",
				"hours": "9:00 AM - 5:00 PM"
			},
			{
				"day": "Tuesday",
				"hours": "9:00 AM - 5:00 PM"
			},
			{
				"day": "Wednesday",
				"hours": "9:00 AM - 5:00 PM"
			},
			{
				"day": "Thursday",
				"hours": "9:00 AM - 5:00 PM"
			},
			{
				"day": "Friday",
				"hours": "10:00 AM - 5:00 PM"
			},
			{
				"day": "Saturday",
				"hours": "11:00 AM - 6:00 PM"
			}
		],
		"externalIds": {
			"foursquare": "d92fcb8a1799418a5cee9116",
			"tripadvisor": "13485702"
		},
		"paying": false,
		"mapboxId": "dXJuOm1ieHBvaTowMWJlY2UwZC0zMmYxLTQ1ODItYWI0Yy0xNWQ3N2U1NWYyYmY",
		"userId": null,
		"createdAt": "2024-04-18T16:47:49.000Z"
	},
	{
		"id": "dw2zhvsv0col6gc",
		"slug": "strathmore-properties-edinburgh-eh1-3ep",
		"name": "Strathmore Properties",
		"image": null,
		"description": null,
		"latitude": 55.956279,
		"longitude": -3.191667,
		"street": "10 York Pl",
		"postcode": "EH1 3EP",
		"city": "Edinburgh",
		"country": "United Kingdom",
		"phone": "0131 523 1444",
		"website": "http://www.sbc-uk.com",
		"facebook": null,
		"twitter": null,
		"instagram": null,
		"opening_hours": null,
		"externalIds": {
			"foursquare": "a266fb956ee84eb978436d93"
		},
		"paying": false,
		"mapboxId": "dXJuOm1ieHBvaTpjOWRkYWQyYy05MjExLTRhMDQtODdkOC02YjJmMmY0MmNiMjg",
		"userId": null,
		"createdAt": "2024-04-18T16:47:50.000Z"
	},
	{
		"id": "20wob2hn2s7mfyz",
		"slug": "strathmore-properties-edinburgh-eh1-3hp",
		"name": "Strathmore Properties",
		"image": null,
		"description": null,
		"latitude": 55.956061,
		"longitude": -3.190005,
		"street": "29 York Place",
		"postcode": "EH1 3HP",
		"city": "Edinburgh",
		"country": "United Kingdom",
		"phone": "+441315576123",
		"website": null,
		"facebook": null,
		"twitter": null,
		"instagram": null,
		"opening_hours": null,
		"externalIds": {
			"safegraph": "224-222@4hx-2yt-33q",
			"foursquare": "227aa071a7254863a03a258d"
		},
		"paying": false,
		"mapboxId": "dXJuOm1ieHBvaToyYjJjZWU3NS05YzM4LTRjODgtODJjNy1iNTMzNjc2ZGU1ZmI",
		"userId": null,
		"createdAt": "2024-04-18T16:47:50.000Z"
	},
	{
		"id": "xzx134u0exqwasu",
		"slug": "strathmore-business-centre-edinburgh-eh7-4lz",
		"name": "Strathmore Business Centre",
		"image": null,
		"description": null,
		"latitude": 55.962063,
		"longitude": -3.182417,
		"street": "8b McDonald Rd",
		"postcode": "EH7 4LZ",
		"city": "Edinburgh",
		"country": "United Kingdom",
		"phone": "0131 523 1400",
		"website": "http://www.strathmoreedinburgh.com",
		"facebook": null,
		"twitter": null,
		"instagram": null,
		"opening_hours": null,
		"externalIds": {
			"foursquare": "b03ecadd85114d51ffa053d3"
		},
		"paying": false,
		"mapboxId": "dXJuOm1ieHBvaTo2NWU2YWM0Mi1kNmZlLTQwNjMtOWM2NS01MTU3MzMxODZlNTE",
		"userId": null,
		"createdAt": "2024-04-18T16:47:50.000Z"
	},
	{
		"id": "tn7y3v0mqlvc57j",
		"slug": "strathmohr-guest-house-edinburgh-eh9-2bx",
		"name": "Strathmohr Guest House",
		"image": null,
		"description": null,
		"latitude": 55.932517,
		"longitude": -3.172494,
		"street": "23 Mayfield Gardens",
		"postcode": "EH9 2BX",
		"city": "Edinburgh",
		"country": "United Kingdom",
		"phone": "+441316678475",
		"website": null,
		"facebook": null,
		"twitter": null,
		"instagram": null,
		"opening_hours": null,
		"externalIds": {
			"safegraph": "22j-223@4hw-z4n-8gk"
		},
		"paying": false,
		"mapboxId": "dXJuOm1ieHBvaTo5Yjc1YTJkOS0yN2NjLTQ2MDctOWQ5Mi0yZjVmMWQ2NjVjNjI",
		"userId": null,
		"createdAt": "2024-04-18T16:47:50.000Z"
	},
	{
		"id": "w3vj0ohb8phlnrg",
		"slug": "strathmore-bar-edinburgh-eh6-8sg",
		"name": "Strathmore Bar",
		"image": "https://media-cdn.tripadvisor.com/media/photo-s/27/14/29/24/holly-loves-the-strathmore.jpg",
		"description": null,
		"latitude": 55.96383,
		"longitude": -3.17639,
		"street": "17 Iona Street",
		"postcode": "EH6 8SG",
		"city": "Edinburgh",
		"country": "United Kingdom",
		"phone": "+44 131 554 8717",
		"website": "http://www.thestrathmorebar.co.uk",
		"facebook": null,
		"twitter": null,
		"instagram": null,
		"opening_hours": [
			{
				"day": "Sunday",
				"hours": "11:00 AM - 11:15 PM"
			},
			{
				"day": "Monday",
				"hours": "11:00 AM - 11:15 PM"
			},
			{
				"day": "Tuesday",
				"hours": "11:00 AM - 11:15 PM"
			},
			{
				"day": "Wednesday",
				"hours": "11:00 AM - 11:15 PM"
			},
			{
				"day": "Thursday",
				"hours": "11:00 AM - 12:00 AM"
			},
			{
				"day": "Friday",
				"hours": "11:00 AM - 12:15 AM"
			},
			{
				"day": "Saturday",
				"hours": "11:00 AM - 12:15 AM"
			}
		],
		"externalIds": {
			"tripadvisor": "10798492",
			"foursquare": "502805b6e4b08c739c1eaeb2",
			"safegraph": "239-222@4hw-xrq-g8v"
		},
		"paying": false,
		"mapboxId": "dXJuOm1ieHBvaTo5OTViYzAxMy0xNjljLTRkZmItYTlmZS03MzRjZjVjNDgyNTc",
		"userId": null,
		"createdAt": "2024-04-18T16:47:50.000Z"
	},
	{
		"id": "pbi2v0tcvp86ds5",
		"slug": "robertson-memorials-edinburgh-eh16-6ry",
		"name": "Robertson Memorials",
		"image": null,
		"description": null,
		"latitude": 55.912714,
		"longitude": -3.16156,
		"street": "12 Kirkgate",
		"postcode": "EH16 6RY",
		"city": "Edinburgh",
		"country": "United Kingdom",
		"phone": "+441316643523",
		"website": "http://www.robertsonmemorials.co.uk",
		"facebook": null,
		"twitter": null,
		"instagram": null,
		"opening_hours": null,
		"externalIds": {
			"safegraph": "22g-222@4hx-2z9-3nq",
			"foursquare": "132915d58562407b25ece2cb"
		},
		"paying": false,
		"mapboxId": "dXJuOm1ieHBvaTowMmVhNjgxZC1kMTYzLTQ4ODctODEzNy03Mjg2YWIxZDMxN2I",
		"userId": null,
		"createdAt": "2024-04-18T16:48:00.000Z"
	},
	{
		"id": "b7wu3dka3lofqja",
		"slug": "robertson-memorials-dalkeith-eh22-1je",
		"name": "Robertson Memorials",
		"image": null,
		"description": null,
		"latitude": 55.894154,
		"longitude": -3.071825,
		"street": "5 North Wynd",
		"postcode": "EH22 1JE",
		"city": "Dalkeith",
		"country": "United Kingdom",
		"phone": "+441316632031",
		"website": "http://www.robertsonmemorials.co.uk",
		"facebook": null,
		"twitter": null,
		"instagram": null,
		"opening_hours": null,
		"externalIds": {
			"foursquare": "c52cb46cadba402f48b1b0c6",
			"safegraph": "224-222@4hw-z58-6c5"
		},
		"paying": false,
		"mapboxId": "dXJuOm1ieHBvaTo4YzExODM5Ni0xZDllLTQ3ZmItYmJiMy05NDk5ZDY1NTYwMWI",
		"userId": null,
		"createdAt": "2024-04-18T16:48:00.000Z"
	},
	{
		"id": "ptm3afn4cf0vai5",
		"slug": "baskin-robbins-edinburgh-eh8-8ae",
		"name": "Baskin-Robbins",
		"image": "https://media-cdn.tripadvisor.com/media/photo-s/25/9f/1b/d4/caption.jpg",
		"description": null,
		"latitude": 55.9494,
		"longitude": -3.18274,
		"street": "9 Holyrood Road",
		"postcode": "EH8 8AE",
		"city": "Edinburgh",
		"country": "United Kingdom",
		"phone": "+44 131 281 8823",
		"website": "http://baskinrobbins.co.uk",
		"facebook": null,
		"twitter": null,
		"instagram": null,
		"opening_hours": [
			{
				"day": "Sunday",
				"hours": "12:00 PM - 10:00 PM"
			},
			{
				"day": "Monday",
				"hours": "12:00 PM - 10:00 PM"
			},
			{
				"day": "Tuesday",
				"hours": "12:00 PM - 10:00 PM"
			},
			{
				"day": "Wednesday",
				"hours": "12:00 PM - 10:00 PM"
			},
			{
				"day": "Thursday",
				"hours": "12:00 PM - 10:00 PM"
			},
			{
				"day": "Friday",
				"hours": "12:00 PM - 10:00 PM"
			},
			{
				"day": "Saturday",
				"hours": "12:00 PM - 10:00 PM"
			}
		],
		"externalIds": {
			"safegraph": "226-222@4hx-2yt-xt9",
			"tripadvisor": "14130177",
			"foursquare": "036410f27df44a27faf7ece5"
		},
		"paying": false,
		"mapboxId": "dXJuOm1ieHBvaTo1YmU2MTFkZC0xZWUzLTQxNzAtYjAzZi0yMGFiMzJmN2UxZDg",
		"userId": null,
		"createdAt": "2024-04-18T16:48:00.000Z"
	},
	{
		"id": "n2t6f6pdbez4sde",
		"slug": "robbies-edinburgh-eh6-8se",
		"name": "Robbies",
		"image": null,
		"description": null,
		"latitude": 55.963746,
		"longitude": -3.177526,
		"street": "367 Leith Walk",
		"postcode": "EH6 8SE",
		"city": "Edinburgh",
		"country": "United Kingdom",
		"phone": "+441315546850",
		"website": "https://www.robbiesbar.co.uk",
		"facebook": null,
		"twitter": null,
		"instagram": null,
		"opening_hours": null,
		"externalIds": {
			"safegraph": "22x-222@4hw-xrq-hqz",
			"foursquare": "4b993c8ef964a520606c35e3"
		},
		"paying": false,
		"mapboxId": "dXJuOm1ieHBvaTpjMWVlZDViNy0xYzc0LTQxMmUtODYwYS1jMjRkM2IxMDA1ZGU",
		"userId": null,
		"createdAt": "2024-04-18T16:48:00.000Z"
	},
	{
		"id": "fpzvf9bs8czik2r",
		"slug": "robbies-services-edinburgh-eh2-1hj",
		"name": "Robbies Services",
		"image": null,
		"description": null,
		"latitude": 55.955673,
		"longitude": -3.192534,
		"street": "3c York Place",
		"postcode": "EH2 1HJ",
		"city": "Edinburgh",
		"country": "United Kingdom",
		"phone": "+447990810384",
		"website": null,
		"facebook": null,
		"twitter": null,
		"instagram": null,
		"opening_hours": null,
		"externalIds": {
			"safegraph": "zzw-224@4hx-2yt-2rk"
		},
		"paying": false,
		"mapboxId": "dXJuOm1ieHBvaTo3YmJlMDA3OC1jZThmLTQzNWItYmJlZS03Y2Q5NmZjYjIyM2Q",
		"userId": null,
		"createdAt": "2024-04-18T16:48:00.000Z"
	},
	{
		"id": "11pk1jjvu41c5j9",
		"slug": "robbies-bar-edinburgh-eh6-8se",
		"name": "Robbie's Bar",
		"image": "https://media-cdn.tripadvisor.com/media/photo-s/0a/a1/75/ad/robbie-s-bar.jpg",
		"description": null,
		"latitude": 55.96381,
		"longitude": -3.17762,
		"street": "367 Leith Walk",
		"postcode": "EH6 8SE",
		"city": "Edinburgh",
		"country": "United Kingdom",
		"phone": "+44 131 554 6850",
		"website": "https://www.robbiesbar.co.uk/",
		"facebook": null,
		"twitter": null,
		"instagram": null,
		"opening_hours": [
			{
				"day": "Sunday",
				"hours": "Closed"
			},
			{
				"day": "Monday",
				"hours": "Closed"
			},
			{
				"day": "Tuesday",
				"hours": "Closed"
			},
			{
				"day": "Wednesday",
				"hours": "Closed"
			},
			{
				"day": "Thursday",
				"hours": "Closed"
			},
			{
				"day": "Friday",
				"hours": "11:00 AM - 12:00 AM"
			},
			{
				"day": "Saturday",
				"hours": "Closed"
			}
		],
		"externalIds": {
			"tripadvisor": "5915486",
			"foursquare": "0a1b14a0dcac4973b174a98b"
		},
		"paying": false,
		"mapboxId": "dXJuOm1ieHBvaTo1NTcxMmRhMC1iNjFjLTQzNzUtYjhmMy04Y2VmOGQ5MzdiNWE",
		"userId": null,
		"createdAt": "2024-04-18T16:48:00.000Z"
	},
	{
		"id": "ayenbz1osr8sn7p",
		"slug": "robbies-currie-eh14-5np",
		"name": "Robbie's",
		"image": null,
		"description": null,
		"latitude": 55.895618,
		"longitude": -3.312294,
		"street": "1 Pentland View Court",
		"postcode": "EH14 5NP",
		"city": "Currie",
		"country": "United Kingdom",
		"phone": "+441314492020",
		"website": null,
		"facebook": null,
		"twitter": null,
		"instagram": null,
		"opening_hours": null,
		"externalIds": {
			"safegraph": "zzw-224@4hx-2wz-kcq",
			"foursquare": "909434714ebb4183ff056c62"
		},
		"paying": false,
		"mapboxId": "dXJuOm1ieHBvaTo1MjhmZjRkYi05ODIzLTQ5ZjgtOTdjNy1mZDNjNWU0Njc0MTY",
		"userId": null,
		"createdAt": "2024-04-18T16:48:00.000Z"
	},
	{
		"id": "u4m4mlgpgefweb0",
		"slug": "black-sheep-coffee-edinburgh-eh2-2er",
		"name": "Black Sheep Coffee",
		"image": null,
		"description": null,
		"latitude": 55.951867,
		"longitude": -3.199065,
		"street": "96 Princes Street",
		"postcode": "EH2 2ER",
		"city": "Edinburgh",
		"country": "United Kingdom",
		"phone": "020 3988 6994",
		"website": "https://leavetheherdbehind.com/blogs/locations/95_princes_street",
		"facebook": null,
		"twitter": null,
		"instagram": null,
		"opening_hours": null,
		"externalIds": {
			"safegraph": "zzy-22v@4hx-2yt-kzz",
			"foursquare": "94b507d87dcf7438571ebd89"
		},
		"paying": false,
		"mapboxId": "dXJuOm1ieHBvaToyNzQ5N2Y4MC1jOGUxLTQ4NzYtODJiYy03ZWIyZTg0NDY3NTc",
		"userId": null,
		"createdAt": "2024-04-18T16:48:10.000Z"
	},
	{
		"id": "iii20mybun7n3y8",
		"slug": "black-sheep-coffee-edinburgh-eh2-2le",
		"name": "Black Sheep Coffee",
		"image": null,
		"description": null,
		"latitude": 55.953265,
		"longitude": -3.197612,
		"street": "32 George Street",
		"postcode": "EH2 2LE",
		"city": "Edinburgh",
		"country": "United Kingdom",
		"phone": "07361 574662",
		"website": "https://leavetheherdbehind.com/blogs/locations/32-george-street",
		"facebook": null,
		"twitter": null,
		"instagram": null,
		"opening_hours": null,
		"externalIds": {
			"safegraph": "233-223@4hx-2ys-zs5",
			"foursquare": "6d298e601b7e32e19898a0e4"
		},
		"paying": false,
		"mapboxId": "dXJuOm1ieHBvaTo3NGE4YmNkMS02MGUxLTRkNjctOTNlYy00NGIxZWM3Y2U3NDY",
		"userId": null,
		"createdAt": "2024-04-18T16:48:10.000Z"
	},
	{
		"id": "pchaii77a8vj36i",
		"slug": "black-sheep-coffee-edinburgh-eh2-2an",
		"name": "Black Sheep Coffee",
		"image": "https://media-cdn.tripadvisor.com/media/photo-s/29/99/d7/d9/caption.jpg",
		"description": null,
		"latitude": 55.95319,
		"longitude": -3.191182,
		"street": "24-25 Princes Street",
		"postcode": "EH2 2AN",
		"city": "Edinburgh",
		"country": "United Kingdom",
		"phone": "+44 20 3988 6994",
		"website": "https://leavetheherdbehind.com/blogs/locations/25-princes-street?utm_source=ExtNet&utm_medium=Yext",
		"facebook": null,
		"twitter": null,
		"instagram": null,
		"opening_hours": [
			{
				"day": "Sunday",
				"hours": "6:30 AM - 8:30 PM"
			},
			{
				"day": "Monday",
				"hours": "6:30 AM - 8:30 PM"
			},
			{
				"day": "Tuesday",
				"hours": "6:30 AM - 8:30 PM"
			},
			{
				"day": "Wednesday",
				"hours": "6:30 AM - 8:30 PM"
			},
			{
				"day": "Thursday",
				"hours": "6:30 AM - 8:30 PM"
			},
			{
				"day": "Friday",
				"hours": "6:30 AM - 8:30 PM"
			},
			{
				"day": "Saturday",
				"hours": "7:00 AM - 8:30 PM"
			}
		],
		"externalIds": {
			"safegraph": "226-222@4hx-2ys-y9z",
			"tripadvisor": "25362853",
			"foursquare": "6420912ddba9c57a049f7bce"
		},
		"paying": false,
		"mapboxId": "dXJuOm1ieHBvaTowNzc1OTNlMy1lNTVmLTQyNTMtOTc0MC00ZWI2MmIxMzAyNTA",
		"userId": null,
		"createdAt": "2024-04-18T16:48:10.000Z"
	},
	{
		"id": "uz4txaw2t4n6yr4",
		"slug": "the-sheep-heid-inn-edinburgh-eh15-3qa",
		"name": "The Sheep Heid Inn",
		"image": "https://media-cdn.tripadvisor.com/media/photo-f/02/ec/b1/ef/the-sheep-heid-inn.jpg",
		"description": null,
		"latitude": 55.942028,
		"longitude": -3.148447,
		"street": "43-45 The Causeway",
		"postcode": "EH15 3QA",
		"city": "Edinburgh",
		"country": "United Kingdom",
		"phone": "+44 131 661 7974",
		"website": "http://www.sheepheid.co.uk/",
		"facebook": null,
		"twitter": null,
		"instagram": null,
		"opening_hours": null,
		"externalIds": {
			"safegraph": "222-222@4hw-z4h-xyv",
			"tripadvisor": "1727942",
			"foursquare": "4b05881ef964a520ddb222e3"
		},
		"paying": false,
		"mapboxId": "dXJuOm1ieHBvaTozNWUzNGVmNC1jMWFlLTRjNGEtOTQzMy0wNDY0ZTM2Yjg5ZTg",
		"userId": null,
		"createdAt": "2024-04-18T16:48:11.000Z"
	},
	{
		"id": "5l3w1seiko9rrrj",
		"slug": "card-factory-edinburgh-eh4-2ln",
		"name": "Card Factory",
		"image": null,
		"description": null,
		"latitude": 55.958381,
		"longitude": -3.242162,
		"street": "cardfactory Unit 10 Craigleith Retail Park",
		"postcode": "EH4 2LN",
		"city": "Edinburgh",
		"country": "United Kingdom",
		"phone": "+441313153594",
		"website": "https://www.cardfactory.co.uk/",
		"facebook": null,
		"twitter": null,
		"instagram": null,
		"opening_hours": null,
		"externalIds": {
			"foursquare": "5fa030a25358a376b938a8ed",
			"safegraph": "zzy-227@4hx-2yj-xqz"
		},
		"paying": false,
		"mapboxId": "dXJuOm1ieHBvaTpmZGFkZjBiMC0xOGNjLTQxMDYtYTFhYS1jY2M5NzQxNjQyNzY",
		"userId": null,
		"createdAt": "2024-04-18T16:48:19.000Z"
	},
	{
		"id": "ilpdzhjtdpys3k0",
		"slug": "card-factory-edinburgh-eh2-4aa",
		"name": "Card Factory",
		"image": null,
		"description": null,
		"latitude": 55.951082,
		"longitude": -3.203404,
		"street": "119 Princes Street",
		"postcode": "EH2 4AA",
		"city": "Edinburgh",
		"country": "United Kingdom",
		"phone": "+441312255306",
		"website": "https://www.cardfactory.co.uk/",
		"facebook": null,
		"twitter": null,
		"instagram": null,
		"opening_hours": null,
		"externalIds": {
			"foursquare": "5736f600498e0aa63b381d31",
			"safegraph": "22x-223@4hx-2yt-kvf"
		},
		"paying": false,
		"mapboxId": "dXJuOm1ieHBvaTpjNGU0MDhjNi01ZjQ3LTRhZjEtOWM1Ni1mOTVmYTFmMDZjNzY",
		"userId": null,
		"createdAt": "2024-04-18T16:48:19.000Z"
	},
	{
		"id": "l09nwsyfuitd2o2",
		"slug": "carrick-knowe-golf-course-edinburgh-eh12-5uz",
		"name": "Carrick Knowe Golf Course",
		"image": null,
		"description": null,
		"latitude": 55.93801,
		"longitude": -3.256544,
		"street": "27 Glendevon Park",
		"postcode": "EH12 5UZ",
		"city": "Edinburgh",
		"country": "United Kingdom",
		"phone": "0131 337 1096",
		"website": "http://www.edinburghleisure.co.uk",
		"facebook": null,
		"twitter": null,
		"instagram": null,
		"opening_hours": null,
		"externalIds": {
			"foursquare": "4b058826f964a52018b522e3"
		},
		"paying": false,
		"mapboxId": "dXJuOm1ieHBvaTo4ZTY1ZmRhZC05YmNlLTRjM2ItYTA0MS04MTQ0YjJjYTAwNWY",
		"userId": null,
		"createdAt": "2024-04-18T16:48:19.000Z"
	},
	{
		"id": "lt9q4ipkav3jao1",
		"slug": "carriers-quarters-edinburgh-eh6-6pr",
		"name": "Carriers Quarters",
		"image": "https://media-cdn.tripadvisor.com/media/photo-s/19/a6/68/cc/party-time.jpg",
		"description": null,
		"latitude": 55.976082,
		"longitude": -3.168691,
		"street": "42 Bernard Street",
		"postcode": "EH6 6PR",
		"city": "Edinburgh",
		"country": "United Kingdom",
		"phone": "+44 131 554 4122",
		"website": "http://www.carriersquarters.co.uk",
		"facebook": null,
		"twitter": null,
		"instagram": null,
		"opening_hours": [
			{
				"day": "Sunday",
				"hours": "12:00 PM - 1:00 AM"
			},
			{
				"day": "Monday",
				"hours": "12:00 PM - 1:00 AM"
			},
			{
				"day": "Tuesday",
				"hours": "12:00 PM - 1:00 AM"
			},
			{
				"day": "Wednesday",
				"hours": "12:00 PM - 1:00 AM"
			},
			{
				"day": "Thursday",
				"hours": "12:00 PM - 1:00 AM"
			},
			{
				"day": "Friday",
				"hours": "12:00 PM - 1:00 AM"
			},
			{
				"day": "Saturday",
				"hours": "12:00 PM - 1:00 AM"
			}
		],
		"externalIds": {
			"tripadvisor": "7739093",
			"safegraph": "22h-222@4hw-xrr-26k",
			"foursquare": "4b24f12cf964a520a96a24e3"
		},
		"paying": false,
		"mapboxId": "dXJuOm1ieHBvaToyZjMzYzM0MC1kM2U3LTQwZTUtYTMyZS1hYTM2ZTJmZGYzOWU",
		"userId": null,
		"createdAt": "2024-04-18T16:48:19.000Z"
	},
	{
		"id": "ya7ocx8ry48krmm",
		"slug": "carrickknowe-golf-club-edinburgh-eh12-5uy",
		"name": "Carrickknowe Golf Club",
		"image": null,
		"description": null,
		"latitude": 55.939233,
		"longitude": -3.256174,
		"street": "27 Glendevon Park",
		"postcode": "EH12 5UY",
		"city": "Edinburgh",
		"country": "United Kingdom",
		"phone": "0131 337 1096",
		"website": "http://www.edinburghleisure.co.uk",
		"facebook": null,
		"twitter": null,
		"instagram": null,
		"opening_hours": null,
		"externalIds": {
			"foursquare": "e524af92b9594a917ed12159"
		},
		"paying": false,
		"mapboxId": "dXJuOm1ieHBvaTo0MGQ1ZDE5My00YWI0LTRmZTgtOTk4MS1hZDU3MmVlYTczZTA",
		"userId": null,
		"createdAt": "2024-04-18T16:48:19.000Z"
	},
	{
		"id": "pimx092y7fesxwb",
		"slug": "carriesmatic-creativity-burntisland-ky3-0xp",
		"name": "Carriesmatic Creativity",
		"image": null,
		"description": null,
		"latitude": 56.058566,
		"longitude": -3.293795,
		"street": "36 Humbie Terrace",
		"postcode": "KY3 0XP",
		"city": "Burntisland",
		"country": "United Kingdom",
		"phone": "01383 861565",
		"website": "http://www.edinburghentertainers.co.uk",
		"facebook": null,
		"twitter": null,
		"instagram": null,
		"opening_hours": null,
		"externalIds": {
			"foursquare": "accf512042c94cce7f2db446"
		},
		"paying": false,
		"mapboxId": "dXJuOm1ieHBvaTphYjkzMGNjMS00MWI5LTRjZDctYjA1Ny0zOWY4MGRhNzI3ZjA",
		"userId": null,
		"createdAt": "2024-04-18T16:48:19.000Z"
	},
	{
		"id": "78w0acj2qz0jbn9",
		"slug": "carrier-protein-function-kirkcaldy-ky1-2bx",
		"name": "Carrier Protein Function",
		"image": null,
		"description": null,
		"latitude": 56.127508,
		"longitude": -3.138937,
		"street": "45-1 Ramsey Rd",
		"postcode": "KY1 2BX",
		"city": "Kirkcaldy",
		"country": "United Kingdom",
		"phone": "020 1754 8553",
		"website": "https://www.creative-biolabs.com/vaccine/carrier-protein-design.htm",
		"facebook": null,
		"twitter": null,
		"instagram": null,
		"opening_hours": null,
		"externalIds": {
			"foursquare": "f0a597b15f5245a737a14e96"
		},
		"paying": false,
		"mapboxId": "dXJuOm1ieHBvaTozMTY4MTg3ZC02MWFmLTRhMTgtYmEwNS1jZmZiMDVkMTAwNTE",
		"userId": null,
		"createdAt": "2024-04-18T16:48:19.000Z"
	},
	{
		"id": "jlwwju3f1vn5ehy",
		"slug": "carriers-quarters-boness-eh51-9ng",
		"name": "Carriers Quarters",
		"image": null,
		"description": null,
		"latitude": 56.017387,
		"longitude": -3.605255,
		"street": "8-10 Main Street The Carriers",
		"postcode": "EH51 9NG",
		"city": "Bo'ness",
		"country": "United Kingdom",
		"phone": "+441506205267",
		"website": null,
		"facebook": null,
		"twitter": null,
		"instagram": null,
		"opening_hours": null,
		"externalIds": {
			"safegraph": "22x-222@4hx-34m-5j9",
			"foursquare": "0628be32ecfc4c113b2d9e9f"
		},
		"paying": false,
		"mapboxId": "dXJuOm1ieHBvaTpkYzAxNDMyYy0yZTdiLTRiODYtYmRiZS04MTFkZTU0ZjFjMmQ",
		"userId": null,
		"createdAt": "2024-04-18T16:48:19.000Z"
	},
	{
		"id": "cwj4fu4r5fs7g9k",
		"slug": "q-hill-express-carriers-atlanta-30309",
		"name": "Q Hill Express Carriers",
		"image": null,
		"description": null,
		"latitude": 33.785159,
		"longitude": -84.38384,
		"street": "1100 Peachtree St NE Ste 250",
		"postcode": "30309",
		"city": "Atlanta",
		"country": "United States",
		"phone": "(888) 727-1282",
		"website": "http://www.qhillexpresscarriers.com",
		"facebook": null,
		"twitter": null,
		"instagram": null,
		"opening_hours": null,
		"externalIds": {
			"safegraph": "22b-22d@8g7-474-mhq",
			"foursquare": "84165498d6604e2e71f01589"
		},
		"paying": false,
		"mapboxId": "dXJuOm1ieHBvaTpiMzBjZmIyOC05ZTU2LTQ0NjctYjgwMi05YWEwNzhmYTI0ZTc",
		"userId": null,
		"createdAt": "2024-04-18T16:48:21.000Z"
	},
	{
		"id": "stay9hqmcot7b82",
		"slug": "quality-carriers-safety-training-school-anjou-h1j-1n9",
		"name": "Quality Carriers Safety Training School",
		"image": null,
		"description": null,
		"latitude": 45.615769,
		"longitude": -73.56986,
		"street": "7887 Grenache Rue",
		"postcode": "H1J 1N9",
		"city": "Anjou",
		"country": "Canada",
		"phone": null,
		"website": null,
		"facebook": null,
		"twitter": null,
		"instagram": null,
		"opening_hours": null,
		"externalIds": {
			"foursquare": "4fcd02247beb176f5ddb500c"
		},
		"paying": false,
		"mapboxId": "dXJuOm1ieHBvaTpjNGExZmY3Mi05NmU1LTQ3OGUtOTVhZC02OWViY2FlNzVlZjE",
		"userId": null,
		"createdAt": "2024-04-18T16:48:21.000Z"
	},
	{
		"id": "441yc4ds9jiqzpp",
		"slug": "theatre-stuff-edinburgh-eh5-1pn",
		"name": "Theatre Stuff",
		"image": null,
		"description": null,
		"latitude": 55.981728,
		"longitude": -3.228695,
		"street": "22 West Harbour Rd",
		"postcode": "EH5 1PN",
		"city": "Edinburgh",
		"country": "United Kingdom",
		"phone": "07734 693534",
		"website": null,
		"facebook": null,
		"twitter": null,
		"instagram": null,
		"opening_hours": null,
		"externalIds": {
			"foursquare": "cc0cd86febb1485abb409c7f"
		},
		"paying": false,
		"mapboxId": "dXJuOm1ieHBvaTphN2Y0YThmYy0yNGQ3LTRjNDQtYjFiMi01YzllNGEyYWU0OGI",
		"userId": null,
		"createdAt": "2024-04-18T16:48:30.000Z"
	},
	{
		"id": "h46lfu51ggyp6e4",
		"slug": "playhouse-theatre-tours-edinburgh-eh1-3aa",
		"name": "Playhouse Theatre Tours",
		"image": null,
		"description": null,
		"latitude": 55.957058,
		"longitude": -3.185055,
		"street": "18-22 Greenside Place",
		"postcode": "EH1 3AA",
		"city": "Edinburgh",
		"country": "United Kingdom",
		"phone": "+44 131 524 3333",
		"website": "http://www.edinburghplayhouse.org.uk/",
		"facebook": null,
		"twitter": null,
		"instagram": null,
		"opening_hours": [
			{
				"day": "Sunday",
				"hours": "12:00 PM - 6:00 PM"
			},
			{
				"day": "Monday",
				"hours": "12:00 PM - 6:00 PM"
			},
			{
				"day": "Tuesday",
				"hours": "12:00 PM - 6:00 PM"
			},
			{
				"day": "Wednesday",
				"hours": "12:00 PM - 6:00 PM"
			},
			{
				"day": "Thursday",
				"hours": "12:00 PM - 6:00 PM"
			},
			{
				"day": "Friday",
				"hours": "12:00 PM - 6:00 PM"
			},
			{
				"day": "Saturday",
				"hours": "10:00 AM - 8:00 PM"
			}
		],
		"externalIds": {
			"tripadvisor": "2390567",
			"safegraph": "223-222@4hx-2yt-zvf",
			"foursquare": "4b058823f964a52041b422e3"
		},
		"paying": false,
		"mapboxId": "dXJuOm1ieHBvaTo0OGJiMDZmYi04OTJlLTQ5MDgtODA3NC0yMTUxNjgxYmM5NWM",
		"userId": null,
		"createdAt": "2024-04-18T16:48:30.000Z"
	},
	{
		"id": "tqqpzjp5xe2z6ic",
		"slug": "theatre-royal-bar-edinburgh-eh1-3aa",
		"name": "Theatre Royal Bar",
		"image": "https://media-cdn.tripadvisor.com/media/photo-s/07/f0/73/a6/the-theatre-royal-bar.jpg",
		"description": null,
		"latitude": 55.957244,
		"longitude": -3.185096,
		"street": "25-27 Greenside Place",
		"postcode": "EH1 3AA",
		"city": "Edinburgh",
		"country": "United Kingdom",
		"phone": "+44 131 557 2142",
		"website": "http://www.theatreroyalbar.co.uk",
		"facebook": null,
		"twitter": null,
		"instagram": null,
		"opening_hours": [
			{
				"day": "Sunday",
				"hours": "11:30 AM - 12:00 AM"
			},
			{
				"day": "Monday",
				"hours": "11:30 AM - 12:00 AM"
			},
			{
				"day": "Tuesday",
				"hours": "11:30 AM - 12:00 AM"
			},
			{
				"day": "Wednesday",
				"hours": "11:30 AM - 12:00 AM"
			},
			{
				"day": "Thursday",
				"hours": "11:30 AM - 12:00 AM"
			},
			{
				"day": "Friday",
				"hours": "11:30 AM - 1:00 AM"
			},
			{
				"day": "Saturday",
				"hours": "12:30 PM - 1:00 AM"
			}
		],
		"externalIds": {
			"foursquare": "4b1a979cf964a520fdec23e3",
			"safegraph": "228-223@4hx-2yt-q4v",
			"tripadvisor": "2390093"
		},
		"paying": false,
		"mapboxId": "dXJuOm1ieHBvaTo5YjdiOTA5Ni01YmFlLTRjNTQtODRjOS01MTk0ZTdhNzNmYjY",
		"userId": null,
		"createdAt": "2024-04-18T16:48:30.000Z"
	},
	{
		"id": "h5es9yknncw9hch",
		"slug": "theadore-david-edinburgh-eh3-5qr",
		"name": "Theadore David",
		"image": null,
		"description": null,
		"latitude": 55.969859,
		"longitude": -3.207462,
		"street": "25 Montagu Terrace",
		"postcode": "EH3 5QR",
		"city": "Edinburgh",
		"country": "United Kingdom",
		"phone": "+441315526324",
		"website": null,
		"facebook": null,
		"twitter": null,
		"instagram": null,
		"opening_hours": null,
		"externalIds": {
			"foursquare": "a03c05573b3c4833232736f6",
			"safegraph": "22g-222@4hx-2ys-ct9"
		},
		"paying": false,
		"mapboxId": "dXJuOm1ieHBvaTo3MDkxZjkxZS1hNjFjLTRiNzAtODZjZi1mMmQxMGE1MTRmMjI",
		"userId": null,
		"createdAt": "2024-04-18T16:48:30.000Z"
	},
	{
		"id": "3m4uo0rqi9sfg5g",
		"slug": "the-architectural-heritage-society-of-scotland-edinburgh-eh10-6ds",
		"name": "The Architectural Heritage Society of Scotland",
		"image": null,
		"description": null,
		"latitude": 55.948305,
		"longitude": -3.209396,
		"street": "15 Rutland Square",
		"postcode": "EH10 6DS",
		"city": "Edinburgh",
		"country": "United Kingdom",
		"phone": "0131 557 0019",
		"website": "http://www.ahss.org.uk",
		"facebook": null,
		"twitter": null,
		"instagram": null,
		"opening_hours": null,
		"externalIds": {
			"foursquare": "da1d3d2889de4ef3067358e6"
		},
		"paying": false,
		"mapboxId": "dXJuOm1ieHBvaTpmY2I0M2ZkYy1kNjlhLTRlZDktOWZlMy1iZjgyNGRiNjRkZjc",
		"userId": null,
		"createdAt": "2024-04-18T16:48:30.000Z"
	},
	{
		"id": "yb21qgcrbrw52sh",
		"slug": "sandy-irvine-robertson-statuebench-edinburgh-eh6-7bz",
		"name": "Sandy Irvine Robertson Statue/Bench",
		"image": "https://media-cdn.tripadvisor.com/media/photo-s/1a/9d/fe/be/bench.jpg",
		"description": null,
		"latitude": 55.978027,
		"longitude": -3.169123,
		"street": "282 Shore",
		"postcode": "EH6 7BZ",
		"city": "Edinburgh",
		"country": "United Kingdom",
		"phone": null,
		"website": null,
		"facebook": null,
		"twitter": null,
		"instagram": null,
		"opening_hours": null,
		"externalIds": {
			"tripadvisor": "19882823"
		},
		"paying": false,
		"mapboxId": "dXJuOm1ieHBvaTpmMzM5NDc3ZC1lNjY2LTRjYjUtOTU0MC02ZGFlMGI2MWJlMjU",
		"userId": null,
		"createdAt": "2024-04-18T16:48:39.000Z"
	},
	{
		"id": "0hv1xfnmw7l1mwv",
		"slug": "cobblers-bench-edinburgh-eh15-1ey",
		"name": "Cobbler's Bench",
		"image": null,
		"description": null,
		"latitude": 55.95311,
		"longitude": -3.114175,
		"street": "4 Bath Street",
		"postcode": "EH15 1EY",
		"city": "Edinburgh",
		"country": "United Kingdom",
		"phone": "+447596023500",
		"website": "http://www.cobblersbench.co.uk",
		"facebook": null,
		"twitter": null,
		"instagram": null,
		"opening_hours": null,
		"externalIds": {
			"foursquare": "55066bf59b044c4ca6d08b49",
			"safegraph": "22t-222@4hw-z4q-ty9"
		},
		"paying": false,
		"mapboxId": "dXJuOm1ieHBvaTowYTJkZWU4Yy1lNWM1LTQ3OWMtYjU0Mi1lNDVkNzljNzQ4NWM",
		"userId": null,
		"createdAt": "2024-04-18T16:48:39.000Z"
	},
	{
		"id": "1bs9t6fm7lrz89v",
		"slug": "atu-bensheim-bensheim-64625",
		"name": "ATU Bensheim",
		"image": null,
		"description": null,
		"latitude": 49.68294,
		"longitude": 8.604796,
		"street": "Berliner Ring 83",
		"postcode": "64625",
		"city": "Bensheim",
		"country": "Germany",
		"phone": "+496251105428",
		"website": "https://autowerkstatt.atu.de/hessen/bensheim/berliner-ring-83",
		"facebook": null,
		"twitter": null,
		"instagram": null,
		"opening_hours": null,
		"externalIds": {
			"foursquare": "4cf105377bf3b60c70145d7f",
			"safegraph": "zzy-222@53s-kkv-92k"
		},
		"paying": false,
		"mapboxId": "dXJuOm1ieHBvaTpkNmVmZjQ4OS00ZWVkLTRhNTItOTAxYS1mOGM1ZDBiYjBkY2Q",
		"userId": null,
		"createdAt": "2024-04-18T16:48:39.000Z"
	},
	{
		"id": "6yk4nv8ow7tel97",
		"slug": "amplifon-hrgerte-bensheim-bensheim-64625",
		"name": "Amplifon Hörgeräte Bensheim",
		"image": null,
		"description": null,
		"latitude": 49.682185,
		"longitude": 8.621898,
		"street": "Hauptstrasse 7",
		"postcode": "64625",
		"city": "Bensheim",
		"country": "Germany",
		"phone": "+4962518696030",
		"website": "https://www.amplifon.com/de/filiale-finden/hoergeraete-bensheim/amplifon-bensheim-s386",
		"facebook": null,
		"twitter": null,
		"instagram": null,
		"opening_hours": null,
		"externalIds": {
			"safegraph": "zzy-222@53s-kkv-bff",
			"foursquare": "5ad0d399a5a3152334f05375"
		},
		"paying": false,
		"mapboxId": "dXJuOm1ieHBvaTozMjA5ZTZlOS04MGNjLTQ2NGQtODFhZC1mNzkyNTZkNmE5ZDg",
		"userId": null,
		"createdAt": "2024-04-18T16:48:39.000Z"
	},
	{
		"id": "v344pw6p63z5o2b",
		"slug": "fressnapf-bensheim-bensheim-64625",
		"name": "Fressnapf Bensheim",
		"image": null,
		"description": null,
		"latitude": 49.682819,
		"longitude": 8.604784,
		"street": "Berliner Ring 83",
		"postcode": "64625",
		"city": "Bensheim",
		"country": "Germany",
		"phone": "+496251707722",
		"website": "https://www.fressnapf.de/maerkte/fressnapf-bensheim",
		"facebook": null,
		"twitter": null,
		"instagram": null,
		"opening_hours": null,
		"externalIds": {
			"safegraph": "zzy-222@53s-kkm-649",
			"foursquare": "4f5b5af3e4b05cfda48536b4"
		},
		"paying": false,
		"mapboxId": "dXJuOm1ieHBvaTozNmEyZWQ4OC0xMGY2LTQxYmMtODUzNS05YWY2ZjA3MTM1Zjg",
		"userId": null,
		"createdAt": "2024-04-18T16:48:39.000Z"
	},
	{
		"id": "rcnl4kjbuv6xvew",
		"slug": "das-futterhaus-bensheim-bensheim-64625",
		"name": "DAS FUTTERHAUS - Bensheim",
		"image": null,
		"description": null,
		"latitude": 49.674109,
		"longitude": 8.616613,
		"street": "Fabrikstraße 18",
		"postcode": "64625",
		"city": "Bensheim",
		"country": "Germany",
		"phone": "+4962519392197",
		"website": "http://www.futterhaus.de/bensheim",
		"facebook": null,
		"twitter": null,
		"instagram": null,
		"opening_hours": null,
		"externalIds": {
			"foursquare": "568f7efe498e96ff7225406f",
			"safegraph": "zzy-222@53s-kkm-9vf"
		},
		"paying": false,
		"mapboxId": "dXJuOm1ieHBvaTo3YzJlMGRjNS1kZDBjLTQ0ZDEtYmU3NS03ZjlmMmExMDExNGE",
		"userId": null,
		"createdAt": "2024-04-18T16:48:39.000Z"
	},
	{
		"id": "u7xlb9x7beyefhp",
		"slug": "auto-schneider-gmbh-bensheim-bensheim-64625",
		"name": "Auto Schneider GmbH Bensheim",
		"image": null,
		"description": null,
		"latitude": 49.6714656,
		"longitude": 8.6057776,
		"street": "Berliner Ring 30",
		"postcode": "64625",
		"city": "Bensheim",
		"country": "Germany",
		"phone": "+49625117770",
		"website": "https://www.nissan.de/",
		"facebook": null,
		"twitter": null,
		"instagram": null,
		"opening_hours": null,
		"externalIds": {
			"safegraph": "zzy-222@53s-kke-9xq",
			"foursquare": "4d89c16926a36ea82894e5ad"
		},
		"paying": false,
		"mapboxId": "dXJuOm1ieHBvaTo1N2U2MWIwNi1lNWMyLTQyOWItOWNkOC00MDY4YjZhZjY3ZTk",
		"userId": null,
		"createdAt": "2024-04-18T16:48:39.000Z"
	},
	{
		"id": "9pznmlf0xtopu76",
		"slug": "bank-of-scotland-edinburgh-eh4-1af",
		"name": "Bank of Scotland",
		"image": null,
		"description": null,
		"latitude": 55.958745,
		"longitude": -3.226047,
		"street": "43 Comely Bank",
		"postcode": "EH4 1AF",
		"city": "Edinburgh",
		"country": "United Kingdom",
		"phone": "+443457213141",
		"website": "https://branches.bankofscotland.co.uk/edinburgh/43-comely-bank",
		"facebook": null,
		"twitter": null,
		"instagram": null,
		"opening_hours": null,
		"externalIds": {
			"safegraph": "225-222@4hx-2yk-8vz",
			"foursquare": "4bf5074094af2d7f29363b72"
		},
		"paying": false,
		"mapboxId": "dXJuOm1ieHBvaTo3M2ExYTFlYS0wYTIyLTQ3YjYtYWQ0Zi1hMjk1ZjUzYmE5NWQ",
		"userId": null,
		"createdAt": "2024-04-18T16:48:42.000Z"
	},
	{
		"id": "ke3wbil6qzgayse",
		"slug": "the-banshee-labyrinth-edinburgh-eh1-1lg",
		"name": "The Banshee Labyrinth",
		"image": "https://media-cdn.tripadvisor.com/media/photo-s/0f/ad/81/ac/skeleton-bar-in-the-dungeons.jpg",
		"description": null,
		"latitude": 55.949392,
		"longitude": -3.18681,
		"street": "29-35 Niddry Street",
		"postcode": "EH1 1LG",
		"city": "Edinburgh",
		"country": "United Kingdom",
		"phone": "+44 131 558 8209",
		"website": "http://www.thebansheelabyrinth.com/",
		"facebook": null,
		"twitter": null,
		"instagram": null,
		"opening_hours": [
			{
				"day": "Sunday",
				"hours": "7:00 PM - 3:00 AM"
			},
			{
				"day": "Monday",
				"hours": "7:00 PM - 3:00 AM"
			},
			{
				"day": "Tuesday",
				"hours": "7:00 PM - 3:00 AM"
			},
			{
				"day": "Wednesday",
				"hours": "7:00 PM - 3:00 AM"
			},
			{
				"day": "Thursday",
				"hours": "5:00 PM - 3:00 AM"
			},
			{
				"day": "Friday",
				"hours": "5:00 PM - 3:00 AM"
			},
			{
				"day": "Saturday",
				"hours": "5:00 PM - 3:00 AM"
			}
		],
		"externalIds": {
			"tripadvisor": "1742840",
			"safegraph": "zzy-22r@4hx-2yt-789",
			"foursquare": "4b733b97f964a5206ba32de3"
		},
		"paying": false,
		"mapboxId": "dXJuOm1ieHBvaTo0NGVlZThlZS0xMDAyLTQ5MTgtOGU2ZS1mOWVmNDYwZTdkMjI",
		"userId": null,
		"createdAt": "2024-04-18T16:48:42.000Z"
	},
	{
		"id": "1i135hgxrazcbgb",
		"slug": "bansi-home-stay-agra-282006",
		"name": "Bansi Home Stay",
		"image": "https://media-cdn.tripadvisor.com/media/photo-s/12/14/29/37/photo0jpg.jpg",
		"description": null,
		"latitude": 27.160287,
		"longitude": 78.035225,
		"street": "18 Handicraft Nagar",
		"postcode": "282006",
		"city": "Agra",
		"country": "India",
		"phone": "+91 94122 57635",
		"website": "http://www.bansihomestayagra.com/",
		"facebook": null,
		"twitter": null,
		"instagram": null,
		"opening_hours": null,
		"externalIds": {
			"tripadvisor": "3773086",
			"foursquare": "52786add11d2c247ae38ecbb"
		},
		"paying": false,
		"mapboxId": "dXJuOm1ieHBvaTowYjExMzQzYS1kNTZkLTQ5NmItOTRjMy1jM2MyZjgyNjU0MjE",
		"userId": null,
		"createdAt": "2024-04-18T16:48:42.000Z"
	},
	{
		"id": "8tc91983t190hmu",
		"slug": "oyo-14219-hotel-banshi-agra-282006",
		"name": "OYO 14219 Hotel Banshi",
		"image": "https://media-cdn.tripadvisor.com/media/photo-s/1a/b8/53/5e/oyo-14219-hotel-banshi.jpg",
		"description": null,
		"latitude": 27.154085,
		"longitude": 78.0495,
		"street": "A 165 Taj Nagri Phase II Fatehabad Road Behind Lawaniya Hospital",
		"postcode": "282006",
		"city": "Agra",
		"country": "India",
		"phone": "090690 00456",
		"website": "http://www.oyorooms.com/36461?utm_source=tripadvisor&utm_medium=listing&utm_campaign=AGR164",
		"facebook": null,
		"twitter": null,
		"instagram": null,
		"opening_hours": null,
		"externalIds": {
			"tripadvisor": "19743182",
			"foursquare": "31513ecc7ff648cb086be145"
		},
		"paying": false,
		"mapboxId": "dXJuOm1ieHBvaTo2MjFlNjgxZi0xMjk2LTQ2NWUtYjljMS03NmQ2NGI4OWFmZmI",
		"userId": null,
		"createdAt": "2024-04-18T16:48:42.000Z"
	},
	{
		"id": "2b5rhj8qz4z8bdj",
		"slug": "banshee-mason-45040",
		"name": "Banshee",
		"image": null,
		"description": null,
		"latitude": 39.345682,
		"longitude": -84.265479,
		"street": "6300 Kings Is Dr",
		"postcode": "45040",
		"city": "Mason",
		"country": "United States",
		"phone": "+15137545700",
		"website": "https://www.visitkingsisland.com/banshee",
		"facebook": null,
		"twitter": null,
		"instagram": null,
		"opening_hours": null,
		"externalIds": {
			"safegraph": "zzw-229@63j-ds6-35z",
			"foursquare": "5206854c11d2eb196a885ced"
		},
		"paying": false,
		"mapboxId": "dXJuOm1ieHBvaTo5MGMxMzUyZi03MjBmLTQyYzktYjc3OC1iOGJkZGMyMjg2ZTg",
		"userId": null,
		"createdAt": "2024-04-18T16:48:42.000Z"
	},
	{
		"id": "osimv68oe7h868u",
		"slug": "banshee-wines-healdsburg-95448",
		"name": "Banshee Wines",
		"image": "https://media-cdn.tripadvisor.com/media/photo-s/0e/e7/e5/bf/photo7jpg.jpg",
		"description": null,
		"latitude": 38.611633,
		"longitude": -122.86977,
		"street": "325 Center St",
		"postcode": "95448",
		"city": "Healdsburg",
		"country": "United States",
		"phone": "+1 707-395-0915",
		"website": "http://www.bansheewines.com",
		"facebook": null,
		"twitter": null,
		"instagram": null,
		"opening_hours": [
			{
				"day": "Sunday",
				"hours": "12:00 PM - 7:00 PM"
			},
			{
				"day": "Monday",
				"hours": "Closed"
			},
			{
				"day": "Tuesday",
				"hours": "Closed"
			},
			{
				"day": "Wednesday",
				"hours": "12:00 PM - 7:00 PM"
			},
			{
				"day": "Thursday",
				"hours": "12:00 PM - 7:00 PM"
			},
			{
				"day": "Friday",
				"hours": "12:00 PM - 7:00 PM"
			},
			{
				"day": "Saturday",
				"hours": "12:00 PM - 7:00 PM"
			}
		],
		"externalIds": {
			"safegraph": "22r-222@5vg-fs4-t9z",
			"tripadvisor": "6482514",
			"foursquare": "52213031498e890d31ed225d"
		},
		"paying": false,
		"mapboxId": "dXJuOm1ieHBvaTplN2UwODFjNy1lOTFhLTQ5MzEtYTY2Ny1jZWE4Yzk2NTNjNTM",
		"userId": null,
		"createdAt": "2024-04-18T16:48:42.000Z"
	},
	{
		"id": "71eii06ph3n7trb",
		"slug": "banshee-san-donato-milanese-20097",
		"name": "Banshee",
		"image": "https://media-cdn.tripadvisor.com/media/photo-s/19/35/88/46/banshee-staff.jpg",
		"description": null,
		"latitude": 45.420455,
		"longitude": 9.258417,
		"street": "Piazzale Supercorte Maggiore 2",
		"postcode": "20097",
		"city": "San Donato Milanese",
		"country": "Italy",
		"phone": "+39 02 527 2008",
		"website": "http://www.bansheerg.it/locale.html",
		"facebook": null,
		"twitter": null,
		"instagram": null,
		"opening_hours": [
			{
				"day": "Sunday",
				"hours": "12:00 PM - 1:00 AM"
			},
			{
				"day": "Monday",
				"hours": "12:00 PM - 1:00 AM"
			},
			{
				"day": "Tuesday",
				"hours": "12:00 PM - 1:00 AM"
			},
			{
				"day": "Wednesday",
				"hours": "12:00 PM - 1:00 AM"
			},
			{
				"day": "Thursday",
				"hours": "12:00 PM - 1:00 AM"
			},
			{
				"day": "Friday",
				"hours": "12:00 PM - 1:00 AM"
			},
			{
				"day": "Saturday",
				"hours": "12:00 PM - 1:00 AM"
			}
		],
		"externalIds": {
			"tripadvisor": "2140415",
			"safegraph": "zzy-22c@53k-pw3-33q",
			"foursquare": "4bbb8fd73de8c9b656eb99ad"
		},
		"paying": false,
		"mapboxId": "dXJuOm1ieHBvaTo1Yjk4NmFkNS1hOWQ4LTQ4MTEtOGZmZC00NzZhNDkwOWRkMzg",
		"userId": null,
		"createdAt": "2024-04-18T16:48:42.000Z"
	},
	{
		"id": "8a4svmhz1jqt501",
		"slug": "fox-covert-cabs-edinburgh-eh12-6uq",
		"name": "Fox Covert Cabs",
		"image": null,
		"description": null,
		"latitude": 55.954803,
		"longitude": -3.280747,
		"street": "5 Fox Covert Ave",
		"postcode": "EH12 6UQ",
		"city": "Edinburgh",
		"country": "United Kingdom",
		"phone": "0131 334 5389",
		"website": null,
		"facebook": null,
		"twitter": null,
		"instagram": null,
		"opening_hours": null,
		"externalIds": {
			"foursquare": "0a4cb47124cd4cc9714c6cf0"
		},
		"paying": false,
		"mapboxId": "dXJuOm1ieHBvaTo5NWU3MzRiZC0wMmZiLTQzZWYtODE1Yi1hMmFhNzQ2NzU5Y2Y",
		"userId": null,
		"createdAt": "2024-04-18T16:48:50.000Z"
	},
	{
		"id": "xjoberwi7qnnya8",
		"slug": "foxs-bar-edinburgh-eh6-5lg",
		"name": "Fox's Bar",
		"image": null,
		"description": null,
		"latitude": 55.972794,
		"longitude": -3.175894,
		"street": "8 Bonnington Rd",
		"postcode": "EH6 5LG",
		"city": "Edinburgh",
		"country": "United Kingdom",
		"phone": "0131 467 7640",
		"website": null,
		"facebook": null,
		"twitter": null,
		"instagram": null,
		"opening_hours": null,
		"externalIds": {
			"foursquare": "4f4fdf09e4b083dcf31fc548"
		},
		"paying": false,
		"mapboxId": "dXJuOm1ieHBvaToxMTcwY2E5MS02MmRlLTQ2ZjItOGFjOS0yN2Y1M2IwNDUzNTg",
		"userId": null,
		"createdAt": "2024-04-18T16:48:50.000Z"
	},
	{
		"id": "kp6i4jw5n7drrn5",
		"slug": "fox-co-caterers-edinburgh-eh3-7ng",
		"name": "Fox & Co Caterers",
		"image": "https://media-cdn.tripadvisor.com/media/photo-s/1b/4f/3a/1c/fox-co-caterers-cafe.jpg",
		"description": null,
		"latitude": 55.949752,
		"longitude": -3.211765,
		"street": "11-13 William Street",
		"postcode": "EH3 7NG",
		"city": "Edinburgh",
		"country": "United Kingdom",
		"phone": "+44 131 226 6715",
		"website": "https://www.foxcaterers.uk/our-cafe",
		"facebook": null,
		"twitter": null,
		"instagram": null,
		"opening_hours": null,
		"externalIds": {
			"tripadvisor": "15759337",
			"foursquare": "0252a6e8e3dd4b1ae581225d"
		},
		"paying": false,
		"mapboxId": "dXJuOm1ieHBvaTo3OGUwYWYyMy1iOTI2LTQwODAtOTAwMC03ODM4YjY2YjlhN2Q",
		"userId": null,
		"createdAt": "2024-04-18T16:48:50.000Z"
	},
	{
		"id": "yu36wxk4nldioll",
		"slug": "foxs-pacier-sprints-limited-glasgow-g1-3pt",
		"name": "Fox's Pacier Sprints Limited",
		"image": null,
		"description": null,
		"latitude": 55.860641,
		"longitude": -4.255254,
		"street": "505 Great Western Rd",
		"postcode": "G1 3PT",
		"city": "Glasgow",
		"country": "United Kingdom",
		"phone": "0141 883 3920",
		"website": null,
		"facebook": null,
		"twitter": null,
		"instagram": null,
		"opening_hours": null,
		"externalIds": {
			"foursquare": "c967cf45b780465415f1d195"
		},
		"paying": false,
		"mapboxId": "dXJuOm1ieHBvaTo3MGUzZDQ1Ny1hNTE0LTQ2NmEtYjcwNy01MTU3M2MzNWFjNDM",
		"userId": null,
		"createdAt": "2024-04-18T16:48:50.000Z"
	},
	{
		"id": "11fosq23u427h4j",
		"slug": "foxs-pacier-sprints-glasgow-g12-8jq",
		"name": "Fox's Pacier Sprints",
		"image": null,
		"description": null,
		"latitude": 55.875385,
		"longitude": -4.282758,
		"street": "505 Great Western Road",
		"postcode": "G12 8JQ",
		"city": "Glasgow",
		"country": "United Kingdom",
		"phone": "+441418833920",
		"website": null,
		"facebook": null,
		"twitter": null,
		"instagram": null,
		"opening_hours": null,
		"externalIds": {
			"safegraph": "22z-224@4gv-vrs-68v"
		},
		"paying": false,
		"mapboxId": "dXJuOm1ieHBvaTpjNzIxZTFmMy00NGUyLTQyOTMtOGNjZC05MDgzMDlmOTM4ZGE",
		"userId": null,
		"createdAt": "2024-04-18T16:48:50.000Z"
	},
	{
		"id": "natr6jpe3zh7n88",
		"slug": "deacon-brodies-tavern-edinburgh-eh1-2nt",
		"name": "Deacon Brodies Tavern",
		"image": "https://media-cdn.tripadvisor.com/media/photo-s/09/02/71/18/deacon-brodie-s-tavern.jpg",
		"description": null,
		"latitude": 55.949441,
		"longitude": -3.192806,
		"street": "435 Lawnmarket The Royal Mile",
		"postcode": "EH1 2NT",
		"city": "Edinburgh",
		"country": "United Kingdom",
		"phone": "+44 131 225 6531",
		"website": "http://www.nicholsonspubs.co.uk/restaurants/scotlandandnorthernireland/deaconbrodiestavernroyalmileedinburgh",
		"facebook": null,
		"twitter": null,
		"instagram": null,
		"opening_hours": [
			{
				"day": "Sunday",
				"hours": "11:00 AM - 12:00 AM"
			},
			{
				"day": "Monday",
				"hours": "11:00 AM - 12:00 AM"
			},
			{
				"day": "Tuesday",
				"hours": "11:00 AM - 12:00 AM"
			},
			{
				"day": "Wednesday",
				"hours": "11:00 AM - 12:00 AM"
			},
			{
				"day": "Thursday",
				"hours": "11:00 AM - 12:00 AM"
			},
			{
				"day": "Friday",
				"hours": "11:00 AM - 1:00 AM"
			},
			{
				"day": "Saturday",
				"hours": "11:00 AM - 1:00 AM"
			}
		],
		"externalIds": {
			"foursquare": "4b0ed8adf964a520d05b23e3",
			"tripadvisor": "1342541",
			"safegraph": "22j-222@4hx-2yt-8gk"
		},
		"paying": false,
		"mapboxId": "dXJuOm1ieHBvaTpkODAwZWM1YS1hYmFhLTQ5YTItODA3Ny00NjViZDMwMWZmMWM",
		"userId": null,
		"createdAt": "2024-04-18T16:48:59.000Z"
	},
	{
		"id": "qw6ozmv42p0d8ko",
		"slug": "dean-cemetery-edinburgh-eh4-3at",
		"name": "Dean Cemetery",
		"image": "https://media-cdn.tripadvisor.com/media/photo-s/1c/43/8d/cf/james-brown-howard-a.jpg",
		"description": null,
		"latitude": 55.95361,
		"longitude": -3.22069,
		"street": "63 Dean Path",
		"postcode": "EH4 3AT",
		"city": "Edinburgh",
		"country": "United Kingdom",
		"phone": "+44 131 332 1496",
		"website": "http://www.deancemetery.org.uk/",
		"facebook": null,
		"twitter": null,
		"instagram": null,
		"opening_hours": [
			{
				"day": "Sunday",
				"hours": "9:00 AM - 5:00 PM"
			},
			{
				"day": "Monday",
				"hours": "9:00 AM - 5:00 PM"
			},
			{
				"day": "Tuesday",
				"hours": "9:00 AM - 5:00 PM"
			},
			{
				"day": "Wednesday",
				"hours": "9:00 AM - 5:00 PM"
			},
			{
				"day": "Thursday",
				"hours": "9:00 AM - 5:00 PM"
			},
			{
				"day": "Friday",
				"hours": "9:00 AM - 5:00 PM"
			},
			{
				"day": "Saturday",
				"hours": "9:00 AM - 5:00 PM"
			}
		],
		"externalIds": {
			"tripadvisor": "10750180",
			"foursquare": "4c1cdd53fcf8c9b689b0aa0b",
			"safegraph": "zzy-222@4hx-2yk-jd9"
		},
		"paying": false,
		"mapboxId": "dXJuOm1ieHBvaTo5YzE2NDAzMi1jYzc0LTQzZDQtYWYyNy02YWYwM2Q3NDczYzQ",
		"userId": null,
		"createdAt": "2024-04-18T16:48:59.000Z"
	},
	{
		"id": "4jrfmk1kc0znp59",
		"slug": "dean-terrace-clinic-edinburgh-eh4-1nj",
		"name": "Dean Terrace Clinic",
		"image": null,
		"description": null,
		"latitude": 55.957035,
		"longitude": -3.211048,
		"street": "18 Dean Terrace",
		"postcode": "EH4 1NJ",
		"city": "Edinburgh",
		"country": "United Kingdom",
		"phone": "+441313327941",
		"website": null,
		"facebook": null,
		"twitter": null,
		"instagram": null,
		"opening_hours": null,
		"externalIds": {
			"safegraph": "zzy-222@4hx-2yt-9xq"
		},
		"paying": false,
		"mapboxId": "dXJuOm1ieHBvaTo1MmM3YzRjZS1hZTYxLTQ5ZWUtODA1MS1kMzkwMDRlNDQ0Nzc",
		"userId": null,
		"createdAt": "2024-04-18T16:49:00.000Z"
	},
	{
		"id": "puqhds9c2tb61ck",
		"slug": "dean-terrace-apartment-edinburgh-eh4-1nd",
		"name": "Dean Terrace Apartment",
		"image": null,
		"description": null,
		"latitude": 55.957393,
		"longitude": -3.209904,
		"street": "12 Dean Terrace",
		"postcode": "EH4 1ND",
		"city": "Edinburgh",
		"country": "United Kingdom",
		"phone": "0131 332 5920",
		"website": null,
		"facebook": null,
		"twitter": null,
		"instagram": null,
		"opening_hours": null,
		"externalIds": {
			"foursquare": "995c0581921f4098f03d33fa"
		},
		"paying": false,
		"mapboxId": "dXJuOm1ieHBvaTpjOWNhNjBiYi02NWI5LTQ5NGMtOWE4MC1hY2VjYzczYTVmYjY",
		"userId": null,
		"createdAt": "2024-04-18T16:49:00.000Z"
	},
	{
		"id": "t8lsgblo3x04jlc",
		"slug": "the-dean-tavern-dalkeith-eh22-4na",
		"name": "The Dean Tavern",
		"image": null,
		"description": null,
		"latitude": 55.86883,
		"longitude": -3.068939,
		"street": "80 Main Street",
		"postcode": "EH22 4NA",
		"city": "Dalkeith",
		"country": "United Kingdom",
		"phone": "+441316632419",
		"website": "http://www.deantavern.co.uk",
		"facebook": null,
		"twitter": null,
		"instagram": null,
		"opening_hours": null,
		"externalIds": {
			"safegraph": "22k-222@4hw-z4z-z9f",
			"foursquare": "4da9da946e81162ae7c84736"
		},
		"paying": false,
		"mapboxId": "dXJuOm1ieHBvaTo5MzRjYzk0OC0zZTdkLTQ1MmYtYTAzMy03MDdjM2I5NzJjZGI",
		"userId": null,
		"createdAt": "2024-04-18T16:49:00.000Z"
	},
	{
		"id": "6tw3jmpmr6niu6e",
		"slug": "old-waverley-hotel-edinburgh-eh2-2by",
		"name": "Old Waverley Hotel",
		"image": null,
		"description": null,
		"latitude": 55.952907,
		"longitude": -3.193188,
		"street": "43 Princes Street",
		"postcode": "EH2 2BY",
		"city": "Edinburgh",
		"country": "United Kingdom",
		"phone": "+44 (0)131 556 4648",
		"website": "https://www.oldwaverley.co.uk/",
		"facebook": null,
		"twitter": null,
		"instagram": null,
		"opening_hours": null,
		"externalIds": {
			"safegraph": "22c-222@4hx-2ys-y5f",
			"tripadvisor": "26342514",
			"foursquare": "4b05881df964a5205eb222e3"
		},
		"paying": false,
		"mapboxId": "dXJuOm1ieHBvaToyNWE5NWRiNy0yOWU2LTRiZTMtOGVkOC1hMWU2OWE1ZDdjMDY",
		"userId": null,
		"createdAt": "2024-04-18T16:49:08.000Z"
	},
	{
		"id": "0t7fash1m97uawu",
		"slug": "old-chain-pier-edinburgh-eh5-3ed",
		"name": "Old Chain Pier",
		"image": "https://media-cdn.tripadvisor.com/media/photo-s/06/b1/f9/d2/stunning-views-across.jpg",
		"description": null,
		"latitude": 55.980064,
		"longitude": -3.204209,
		"street": "32 Trinity Crescent",
		"postcode": "EH5 3ED",
		"city": "Edinburgh",
		"country": "United Kingdom",
		"phone": "+44 131 552 4960",
		"website": "http://oldchainpier.com",
		"facebook": null,
		"twitter": null,
		"instagram": null,
		"opening_hours": [
			{
				"day": "Sunday",
				"hours": "12:00 PM - 8:30 PM"
			},
			{
				"day": "Monday",
				"hours": "12:00 PM - 8:30 PM"
			},
			{
				"day": "Tuesday",
				"hours": "12:00 PM - 8:30 PM"
			},
			{
				"day": "Wednesday",
				"hours": "12:00 PM - 8:30 PM"
			},
			{
				"day": "Thursday",
				"hours": "12:00 PM - 8:30 PM"
			},
			{
				"day": "Friday",
				"hours": "12:00 PM - 8:30 PM"
			},
			{
				"day": "Saturday",
				"hours": "12:00 PM - 7:30 PM"
			}
		],
		"externalIds": {
			"tripadvisor": "3163333",
			"safegraph": "22j-222@4hw-xrn-zmk",
			"foursquare": "4bf9ae8f4a67c9280b4c27cf"
		},
		"paying": false,
		"mapboxId": "dXJuOm1ieHBvaTpkYjdhYTYxYS0zOTFjLTQyODUtYjZkNi05MDMxMDFkY2U4ZjM",
		"userId": null,
		"createdAt": "2024-04-18T16:49:08.000Z"
	},
	{
		"id": "52e9n9nu8z2ueil",
		"slug": "old-bell-inn-edinburgh-eh9-1ph",
		"name": "Old Bell Inn",
		"image": null,
		"description": null,
		"latitude": 55.935002,
		"longitude": -3.179031,
		"street": "233 Causewayside Edinburgh",
		"postcode": "EH9 1PH",
		"city": "Edinburgh",
		"country": "United Kingdom",
		"phone": "+441316681573",
		"website": "http://www.oldbelledinburgh.co.uk",
		"facebook": null,
		"twitter": null,
		"instagram": null,
		"opening_hours": null,
		"externalIds": {
			"safegraph": "zzw-223@4hw-z4n-7nq",
			"foursquare": "4b12d9d8f964a520678f23e3"
		},
		"paying": false,
		"mapboxId": "dXJuOm1ieHBvaToyNzVmZTljZC01MTIzLTQ2YmItYWRmNi02ZTE0MmRjZWU2MGM",
		"userId": null,
		"createdAt": "2024-04-18T16:49:08.000Z"
	},
	{
		"id": "vobew9ipjkik6l4",
		"slug": "the-old-bell-inn-edinburgh-eh9-1ph",
		"name": "The Old Bell Inn",
		"image": "https://media-cdn.tripadvisor.com/media/photo-s/14/c4/1e/be/photo0jpg.jpg",
		"description": null,
		"latitude": 55.934875,
		"longitude": -3.179111,
		"street": "233 Causewayside",
		"postcode": "EH9 1PH",
		"city": "Edinburgh",
		"country": "United Kingdom",
		"phone": "+44 131 668 1573",
		"website": "http://www.oldbelledinburgh.co.uk",
		"facebook": null,
		"twitter": null,
		"instagram": null,
		"opening_hours": [
			{
				"day": "Sunday",
				"hours": "12:00 PM - 11:00 PM"
			},
			{
				"day": "Monday",
				"hours": "12:00 PM - 11:00 PM"
			},
			{
				"day": "Tuesday",
				"hours": "12:00 PM - 11:00 PM"
			},
			{
				"day": "Wednesday",
				"hours": "12:00 PM - 11:00 PM"
			},
			{
				"day": "Thursday",
				"hours": "11:00 AM - 12:00 AM"
			},
			{
				"day": "Friday",
				"hours": "11:00 AM - 12:00 AM"
			},
			{
				"day": "Saturday",
				"hours": "12:00 PM - 11:00 PM"
			}
		],
		"externalIds": {
			"tripadvisor": "4231974"
		},
		"paying": false,
		"mapboxId": "dXJuOm1ieHBvaTo0YmNlZWFmMy1iZmUwLTQ1OGQtOTZhYS1jZjQ0MTc3YzRkM2Q",
		"userId": null,
		"createdAt": "2024-04-18T16:49:08.000Z"
	},
	{
		"id": "t4vcog58wxdzmn6",
		"slug": "the-old-dr-bells-baths-edinburgh-eh6-5jb",
		"name": "The Old Dr Bells Baths",
		"image": null,
		"description": null,
		"latitude": 55.972412,
		"longitude": -3.175124,
		"street": "101-119 Great Junction St",
		"postcode": "EH6 5JB",
		"city": "Edinburgh",
		"country": "United Kingdom",
		"phone": "07393 778497",
		"website": "http://www.theolddrbellsbaths.com",
		"facebook": null,
		"twitter": null,
		"instagram": null,
		"opening_hours": null,
		"externalIds": {
			"foursquare": "5b519e4b3c858d00394758f2"
		},
		"paying": false,
		"mapboxId": "dXJuOm1ieHBvaTo0MzVjZjQ0Yi0yY2YzLTRjMzYtYjM4Ny0yMmQwYjA5MmRkM2U",
		"userId": null,
		"createdAt": "2024-04-18T16:49:08.000Z"
	},
	{
		"id": "67sgkg0djw7qqtj",
		"slug": "the-rat-pack-edinburgh-eh2-4rg",
		"name": "The Rat Pack",
		"image": "https://media-cdn.tripadvisor.com/media/photo-s/14/f2/83/b2/the-rat-pack-piano-bar.jpg",
		"description": null,
		"latitude": 55.950033,
		"longitude": -3.208354,
		"street": "9 Shandwick Place",
		"postcode": "EH2 4RG",
		"city": "Edinburgh",
		"country": "United Kingdom",
		"phone": "+44 131 228 9147",
		"website": "http://www.ratpackpianobars.com/",
		"facebook": null,
		"twitter": null,
		"instagram": null,
		"opening_hours": [
			{
				"day": "Sunday",
				"hours": "12:00 AM - 3:00 AM"
			},
			{
				"day": "Monday",
				"hours": "Closed"
			},
			{
				"day": "Tuesday",
				"hours": "9:00 PM - 12:00 AM"
			},
			{
				"day": "Wednesday",
				"hours": "9:00 PM - 3:00 AM"
			},
			{
				"day": "Thursday",
				"hours": "7:00 PM - 3:00 AM"
			},
			{
				"day": "Friday",
				"hours": "7:00 PM - 3:00 AM"
			},
			{
				"day": "Saturday",
				"hours": "9:00 PM - 12:00 AM"
			}
		],
		"externalIds": {
			"tripadvisor": "10524733",
			"foursquare": "4b633229f964a520cc692ae3",
			"safegraph": "232-222@4hx-2yt-jsq"
		},
		"paying": false,
		"mapboxId": "dXJuOm1ieHBvaTpiOWUwMGFjNS1kYzBhLTQ1ZDUtYjU1Mi03ZDJhZmVjZjNhN2M",
		"userId": null,
		"createdAt": "2024-04-18T16:49:21.000Z"
	},
	{
		"id": "t2664d9qaycq669",
		"slug": "the-property-package-edinburgh-eh1-2ae",
		"name": "The Property Package",
		"image": null,
		"description": null,
		"latitude": 55.949622,
		"longitude": -3.208155,
		"street": "15 Rutland St",
		"postcode": "EH1 2AE",
		"city": "Edinburgh",
		"country": "United Kingdom",
		"phone": "0131 228 4433",
		"website": null,
		"facebook": null,
		"twitter": null,
		"instagram": null,
		"opening_hours": null,
		"externalIds": {
			"foursquare": "f4a181ef05394c4e7851ac89"
		},
		"paying": false,
		"mapboxId": "dXJuOm1ieHBvaTo5Y2Y2Y2EyNy02ZDBlLTQ3MDctODAxMS1lMDc2ZjM0MDM1MTU",
		"userId": null,
		"createdAt": "2024-04-18T16:49:21.000Z"
	},
	{
		"id": "m4k7i3dp5eedo7c",
		"slug": "the-memorabilia-pack-company-edinburgh-eh1-3lh",
		"name": "The Memorabilia Pack Company",
		"image": null,
		"description": null,
		"latitude": 55.958001,
		"longitude": -3.187387,
		"street": "16 Forth Street",
		"postcode": "EH1 3LH",
		"city": "Edinburgh",
		"country": "United Kingdom",
		"phone": "+441315503717",
		"website": null,
		"facebook": null,
		"twitter": null,
		"instagram": null,
		"opening_hours": null,
		"externalIds": {
			"safegraph": "224-223@4hx-2yt-r6k"
		},
		"paying": false,
		"mapboxId": "dXJuOm1ieHBvaTpmNzgxN2UzMC1hMDE5LTRhMmEtYmQ0MS01ODc4OTIyY2IxMWU",
		"userId": null,
		"createdAt": "2024-04-18T16:49:21.000Z"
	},
	{
		"id": "yxymukh0wlxc3dq",
		"slug": "new-york-steam-packet-edinburgh-eh2-2np",
		"name": "New York Steam Packet",
		"image": "https://media-cdn.tripadvisor.com/media/photo-s/06/e1/49/7a/new-york-steam-packet.jpg",
		"description": null,
		"latitude": 55.952569,
		"longitude": -3.19835,
		"street": "31 Rose Street North Lane",
		"postcode": "EH2 2NP",
		"city": "Edinburgh",
		"country": "United Kingdom",
		"phone": "+44 131 220 4825",
		"website": "http://www.newyorksteampacket.co.uk/",
		"facebook": null,
		"twitter": null,
		"instagram": null,
		"opening_hours": [
			{
				"day": "Sunday",
				"hours": "12:00 PM - 6:30 PM"
			},
			{
				"day": "Monday",
				"hours": "12:00 PM - 10:00 PM"
			},
			{
				"day": "Tuesday",
				"hours": "12:00 PM - 10:00 PM"
			},
			{
				"day": "Wednesday",
				"hours": "12:00 PM - 10:30 PM"
			},
			{
				"day": "Thursday",
				"hours": "12:00 PM - 11:00 PM"
			},
			{
				"day": "Friday",
				"hours": "12:00 PM - 11:00 PM"
			},
			{
				"day": "Saturday",
				"hours": "Closed"
			}
		],
		"externalIds": {
			"foursquare": "4bc0bbf0461576b065a47a32",
			"safegraph": "zzy-227@4hx-2ys-zfz",
			"tripadvisor": "793646"
		},
		"paying": false,
		"mapboxId": "dXJuOm1ieHBvaTo5NGE3OWJjZi0yMWUyLTQwMTgtYWIwYy00M2IyZTlkZTU5ZGQ",
		"userId": null,
		"createdAt": "2024-04-18T16:49:22.000Z"
	},
	{
		"id": "yjlrxy4styvhk0u",
		"slug": "the-packet-station-jd-wetherspoon-falmouth-tr11-3qa",
		"name": "The Packet Station - JD Wetherspoon",
		"image": null,
		"description": null,
		"latitude": 50.154838,
		"longitude": -5.073199,
		"street": "4 The Moor",
		"postcode": "TR11 3QA",
		"city": "Falmouth",
		"country": "United Kingdom",
		"phone": "+441326310110",
		"website": null,
		"facebook": null,
		"twitter": null,
		"instagram": null,
		"opening_hours": null,
		"externalIds": {
			"foursquare": "7b1cf4420fd743fbca22e16f",
			"safegraph": "22f-224@4fd-9w7-n5z"
		},
		"paying": false,
		"mapboxId": "dXJuOm1ieHBvaTo3ZTk0YzViMS0zYjQwLTQwZTAtYTA2Yi02Yjc2MjIwOTM4NGQ",
		"userId": null,
		"createdAt": "2024-04-18T16:49:22.000Z"
	},
	{
		"id": "adhvk0699xarpx7",
		"slug": "the-packet-station-falmouth-tr11-3qa",
		"name": "The Packet Station",
		"image": "https://media-cdn.tripadvisor.com/media/photo-s/23/d8/f5/1a/the-packet-station.jpg",
		"description": null,
		"latitude": 50.154664,
		"longitude": -5.072996,
		"street": "4 The Moor",
		"postcode": "TR11 3QA",
		"city": "Falmouth",
		"country": "United Kingdom",
		"phone": "+44 1326 310110",
		"website": "http://www.jdwetherspoon.co.uk/home/pubs/the-packet-station",
		"facebook": null,
		"twitter": null,
		"instagram": null,
		"opening_hours": [
			{
				"day": "Sunday",
				"hours": "8:00 AM - 12:00 AM"
			},
			{
				"day": "Monday",
				"hours": "8:00 AM - 12:00 AM"
			},
			{
				"day": "Tuesday",
				"hours": "8:00 AM - 12:00 AM"
			},
			{
				"day": "Wednesday",
				"hours": "8:00 AM - 12:00 AM"
			},
			{
				"day": "Thursday",
				"hours": "8:00 AM - 1:00 AM"
			},
			{
				"day": "Friday",
				"hours": "8:00 AM - 1:00 AM"
			},
			{
				"day": "Saturday",
				"hours": "8:00 AM - 1:00 AM"
			}
		],
		"externalIds": {
			"foursquare": "4bcae05d937ca5933f97a892",
			"safegraph": "22f-222@4fd-9w7-n5z",
			"tripadvisor": "3331975"
		},
		"paying": false,
		"mapboxId": "dXJuOm1ieHBvaTo2YjRhODgxYi1mYTg2LTRiOTAtOWQyNi01ZWY2ZGU5ODJhMjg",
		"userId": null,
		"createdAt": "2024-04-18T16:49:22.000Z"
	},
	{
		"id": "9erhr3fjhnz59ae",
		"slug": "the-pantry-edinburgh-eh3-6ss",
		"name": "The Pantry",
		"image": "https://media-cdn.tripadvisor.com/media/photo-s/14/f1/93/36/cake.jpg",
		"description": null,
		"latitude": 55.95711,
		"longitude": -3.205691,
		"street": "1-2 North West Circus Place",
		"postcode": "EH3 6SS",
		"city": "Edinburgh",
		"country": "United Kingdom",
		"phone": "+44 131 629 0206",
		"website": "http://www.thepantryedinburgh.co.uk",
		"facebook": null,
		"twitter": null,
		"instagram": null,
		"opening_hours": [
			{
				"day": "Sunday",
				"hours": "9:00 AM - 4:00 PM"
			},
			{
				"day": "Monday",
				"hours": "9:00 AM - 4:00 PM"
			},
			{
				"day": "Tuesday",
				"hours": "9:00 AM - 4:00 PM"
			},
			{
				"day": "Wednesday",
				"hours": "9:00 AM - 4:00 PM"
			},
			{
				"day": "Thursday",
				"hours": "9:00 AM - 4:00 PM"
			},
			{
				"day": "Friday",
				"hours": "9:00 AM - 4:00 PM"
			},
			{
				"day": "Saturday",
				"hours": "9:00 AM - 4:00 PM"
			}
		],
		"externalIds": {
			"tripadvisor": "3708017",
			"foursquare": "50e1fdc9e4b09f5e98bce986"
		},
		"paying": false,
		"mapboxId": "dXJuOm1ieHBvaTowY2M0OTBkOS02M2M2LTQ1NDktOGQ1MS0wMTU2YjI3MGM3ZDY",
		"userId": null,
		"createdAt": "2024-04-18T16:49:23.000Z"
	},
	{
		"id": "9ne5vktp3j1y269",
		"slug": "the-painted-rooster-edinburgh-eh3-7pr",
		"name": "The Painted Rooster",
		"image": "https://media-cdn.tripadvisor.com/media/photo-s/2a/6c/a5/a2/all-day-breakfast-cooked.jpg",
		"description": null,
		"latitude": 55.951359,
		"longitude": -3.211394,
		"street": "10 Melville Place",
		"postcode": "EH3 7PR",
		"city": "Edinburgh",
		"country": "United Kingdom",
		"phone": "+44 131 467 1742",
		"website": "http://www.thepaintedrooster.co.uk/",
		"facebook": null,
		"twitter": null,
		"instagram": null,
		"opening_hours": [
			{
				"day": "Sunday",
				"hours": "Closed"
			},
			{
				"day": "Monday",
				"hours": "8:30 AM - 3:30 PM"
			},
			{
				"day": "Tuesday",
				"hours": "8:30 AM - 3:30 PM"
			},
			{
				"day": "Wednesday",
				"hours": "8:30 AM - 3:30 PM"
			},
			{
				"day": "Thursday",
				"hours": "8:30 AM - 3:30 PM"
			},
			{
				"day": "Friday",
				"hours": "9:00 AM - 4:00 PM"
			},
			{
				"day": "Saturday",
				"hours": "9:00 AM - 4:00 PM"
			}
		],
		"externalIds": {
			"foursquare": "5b5b2aa2a42362002c65d7e9",
			"safegraph": "22g-222@4hx-2yk-hqz",
			"tripadvisor": "14190687"
		},
		"paying": false,
		"mapboxId": "dXJuOm1ieHBvaTo3ZmZlMDMxNC0xZTdhLTQ2NGYtYTcyYy1mMzgzNGQ3MTc3NjU",
		"userId": null,
		"createdAt": "2024-04-18T16:49:23.000Z"
	},
	{
		"id": "bfs70l0gzyr9clz",
		"slug": "the-steam-packet-rochester-me2-4bg",
		"name": "The Steam Packet",
		"image": null,
		"description": null,
		"latitude": 51.39651,
		"longitude": 0.49963,
		"street": "22 Station Road",
		"postcode": "ME2 4BG",
		"city": "Rochester",
		"country": "United Kingdom",
		"phone": "01634 718195",
		"website": "http://whatpub.com/pubs/MED/11829/steam-packet-strood",
		"facebook": null,
		"twitter": null,
		"instagram": null,
		"opening_hours": [
			{
				"day": "Sunday",
				"hours": "12:00 PM - 11:00 PM"
			},
			{
				"day": "Monday",
				"hours": "12:00 PM - 11:00 PM"
			},
			{
				"day": "Tuesday",
				"hours": "12:00 PM - 11:00 PM"
			},
			{
				"day": "Wednesday",
				"hours": "12:00 PM - 11:00 PM"
			},
			{
				"day": "Thursday",
				"hours": "12:00 PM - 11:00 PM"
			},
			{
				"day": "Friday",
				"hours": "12:00 PM - 11:00 PM"
			},
			{
				"day": "Saturday",
				"hours": "12:00 PM - 11:00 PM"
			}
		],
		"externalIds": {
			"foursquare": "5161c433e4b067ab3adcd5f7",
			"tripadvisor": "10110066"
		},
		"paying": false,
		"mapboxId": "dXJuOm1ieHBvaTowNzdhODI3Ny04MzU3LTQ2OTAtOGQ0MS04MTk2ZjRkODRlOGY",
		"userId": null,
		"createdAt": "2024-04-18T16:49:24.000Z"
	},
	{
		"id": "hwi03vldd4bh2c4",
		"slug": "nq64-edinburgh-edinburgh-eh1-2dj",
		"name": "NQ64 Edinburgh",
		"image": "https://media-cdn.tripadvisor.com/media/photo-s/28/6d/08/84/nq64-edinburgh.jpg",
		"description": null,
		"latitude": 55.948297,
		"longitude": -3.206199,
		"street": "25 Lothian Road",
		"postcode": "EH1 2DJ",
		"city": "Edinburgh",
		"country": "United Kingdom",
		"phone": "+44 131 223 9191",
		"website": "http://www.nq64.co.uk",
		"facebook": null,
		"twitter": null,
		"instagram": null,
		"opening_hours": [
			{
				"day": "Sunday",
				"hours": "4:00 PM - 2:00 AM"
			},
			{
				"day": "Monday",
				"hours": "4:00 PM - 2:00 AM"
			},
			{
				"day": "Tuesday",
				"hours": "4:00 PM - 2:00 AM"
			},
			{
				"day": "Wednesday",
				"hours": "4:00 PM - 2:00 AM"
			},
			{
				"day": "Thursday",
				"hours": "4:00 PM - 2:00 AM"
			},
			{
				"day": "Friday",
				"hours": "12:00 PM - 2:00 AM"
			},
			{
				"day": "Saturday",
				"hours": "12:00 PM - 2:00 AM"
			}
		],
		"externalIds": {
			"safegraph": "227-223@4hx-2yt-jqf",
			"tripadvisor": "23646739",
			"foursquare": "61153eebf2487555e1f1056d"
		},
		"paying": false,
		"mapboxId": "dXJuOm1ieHBvaTpjZDEzYTcyNi01ZjcxLTQ3ZDUtYTVkOC03YjI1ZjM3MzA4YTk",
		"userId": null,
		"createdAt": "2024-04-18T16:49:37.000Z"
	},
	{
		"id": "945i1ba381606jm",
		"slug": "nq64-glasgow-glasgow-g1-1nu",
		"name": "NQ64 Glasgow",
		"image": "https://media-cdn.tripadvisor.com/media/photo-s/26/be/7d/d4/nq64-glasgow.jpg",
		"description": null,
		"latitude": 55.85827,
		"longitude": -4.245314,
		"street": "11 Bell Street",
		"postcode": "G1 1NU",
		"city": "Glasgow",
		"country": "United Kingdom",
		"phone": "+44 141 141 4141",
		"website": "http://www.nq64.co.uk/glasgow",
		"facebook": null,
		"twitter": null,
		"instagram": null,
		"opening_hours": [
			{
				"day": "Sunday",
				"hours": "7:00 PM - 3:00 AM"
			},
			{
				"day": "Monday",
				"hours": "7:00 PM - 3:00 AM"
			},
			{
				"day": "Tuesday",
				"hours": "7:00 PM - 3:00 AM"
			},
			{
				"day": "Wednesday",
				"hours": "7:00 PM - 3:00 AM"
			},
			{
				"day": "Thursday",
				"hours": "7:00 PM - 3:00 AM"
			},
			{
				"day": "Friday",
				"hours": "7:00 PM - 3:00 AM"
			},
			{
				"day": "Saturday",
				"hours": "7:00 PM - 3:00 AM"
			}
		],
		"externalIds": {
			"foursquare": "6232718d30d9645b2602a558",
			"safegraph": "zzy-22p@4gv-vrv-bx5",
			"tripadvisor": "23960209"
		},
		"paying": false,
		"mapboxId": "dXJuOm1ieHBvaTo3MjdmYjk5Yi1hMTA4LTQ2NTktOTU2Yy02YWRlNmVkOWVkNDM",
		"userId": null,
		"createdAt": "2024-04-18T16:49:37.000Z"
	},
	{
		"id": "y1f5joirz8cdjvc",
		"slug": "nq64-newcastle-newcastle-upon-tyne-ne1-6sg",
		"name": "NQ64 Newcastle",
		"image": null,
		"description": null,
		"latitude": 54.972035,
		"longitude": -1.610673,
		"street": "82-84 Pilgrim Street",
		"postcode": "NE1 6SG",
		"city": "Newcastle upon Tyne",
		"country": "United Kingdom",
		"phone": "028 4348 2137",
		"website": "http://www.nq64.co.uk/newcastle",
		"facebook": null,
		"twitter": null,
		"instagram": null,
		"opening_hours": null,
		"externalIds": {
			"safegraph": "zzy-246@4hx-87w-n5z",
			"foursquare": "630665b85ddf18781e91b69d"
		},
		"paying": false,
		"mapboxId": "dXJuOm1ieHBvaTpmNmI3N2UwMC02MjIxLTRkZDEtOWNiMi1iZTY0Y2NjM2IzZDQ",
		"userId": null,
		"createdAt": "2024-04-18T16:49:37.000Z"
	},
	{
		"id": "cs6r4qr8g57ljod",
		"slug": "nq64-newcastle-upon-tyne-ne1-5rz",
		"name": "NQ64",
		"image": null,
		"description": null,
		"latitude": 54.972885,
		"longitude": -1.618424,
		"street": "82 Pilgrim Street",
		"postcode": "NE1 5RZ",
		"city": "Newcastle upon Tyne",
		"country": "United Kingdom",
		"phone": null,
		"website": null,
		"facebook": null,
		"twitter": null,
		"instagram": null,
		"opening_hours": null,
		"externalIds": {
			"tripadvisor": "25333673"
		},
		"paying": false,
		"mapboxId": "dXJuOm1ieHBvaTo5NzVlYjUzNy0zYWRiLTQ1YzYtOWMzYi1lMDVkYmRhYmViY2E",
		"userId": null,
		"createdAt": "2024-04-18T16:49:37.000Z"
	},
	{
		"id": "46wezery8hbu4g0",
		"slug": "calendar-club-edinburgh-eh16-5pb",
		"name": "Calendar Club",
		"image": null,
		"description": null,
		"latitude": 55.92681,
		"longitude": -3.16392,
		"street": "6 Lady Road Cameron Toll Shopping Centre",
		"postcode": "EH16 5PB",
		"city": "Edinburgh",
		"country": "United Kingdom",
		"phone": null,
		"website": null,
		"facebook": null,
		"twitter": null,
		"instagram": null,
		"opening_hours": null,
		"externalIds": {
			"safegraph": "zzy-22m@4hw-z4p-ks5"
		},
		"paying": false,
		"mapboxId": "dXJuOm1ieHBvaTowMmViY2FkMS1iMzY0LTRkMTUtOTEyZC04MDJiY2Y2NDkzZTk",
		"userId": null,
		"createdAt": "2024-04-18T16:49:44.000Z"
	},
	{
		"id": "02dvt5ft2xtxn0q",
		"slug": "calvin-klein-edinburgh-eh1-3ad",
		"name": "Calvin Klein",
		"image": null,
		"description": null,
		"latitude": 55.955207,
		"longitude": -3.188493,
		"street": "1 Leith Street",
		"postcode": "EH1 3AD",
		"city": "Edinburgh",
		"country": "United Kingdom",
		"phone": "+441313744916",
		"website": "https://www.calvinklein.co.uk",
		"facebook": null,
		"twitter": null,
		"instagram": null,
		"opening_hours": null,
		"externalIds": {
			"foursquare": "32c19548b7c841f5ef37f232",
			"safegraph": "zzy-22j@4hx-2yt-2zf"
		},
		"paying": false,
		"mapboxId": "dXJuOm1ieHBvaTpjZDkyODNmOC1hNzBmLTQ4MzktOGIwMC1hMDMyMDk0MjVmMmU",
		"userId": null,
		"createdAt": "2024-04-18T16:49:44.000Z"
	},
	{
		"id": "bclqgisuv6necnc",
		"slug": "caley-water-edinburgh-eh3-7bj",
		"name": "Caley Water",
		"image": null,
		"description": null,
		"latitude": 55.950128,
		"longitude": -3.211784,
		"street": "25a Stafford St",
		"postcode": "EH3 7BJ",
		"city": "Edinburgh",
		"country": "United Kingdom",
		"phone": "0131 225 6657",
		"website": "http://www.caleywater.co.uk",
		"facebook": null,
		"twitter": null,
		"instagram": null,
		"opening_hours": null,
		"externalIds": {
			"foursquare": "d39d45bdba4d4c060a841880"
		},
		"paying": false,
		"mapboxId": "dXJuOm1ieHBvaToyNWEyNzM2Yi01YTM1LTQzNzktYmU5Ni1hYTFlNjBhYjQ4NGQ",
		"userId": null,
		"createdAt": "2024-04-18T16:49:44.000Z"
	},
	{
		"id": "7jkcnqiiax7jar6",
		"slug": "caley-bistro-edinburgh-eh3-9lj",
		"name": "Caley Bistro",
		"image": null,
		"description": null,
		"latitude": 55.94112,
		"longitude": -3.203266,
		"street": "30-32 Leven Street",
		"postcode": "EH3 9LJ",
		"city": "Edinburgh",
		"country": "United Kingdom",
		"phone": "+441316227170",
		"website": null,
		"facebook": null,
		"twitter": null,
		"instagram": null,
		"opening_hours": null,
		"externalIds": {
			"safegraph": "227-222@4hx-2ym-rc5"
		},
		"paying": false,
		"mapboxId": "dXJuOm1ieHBvaTpmZDM0MjcwZC02ZTFkLTRmZGUtOWVmOS1kZWIwNzNjMjAxNWQ",
		"userId": null,
		"createdAt": "2024-04-18T16:49:44.000Z"
	},
	{
		"id": "nultceqe8xoa1em",
		"slug": "the-caley-sample-room-edinburgh-eh11-2jp",
		"name": "The Caley Sample Room",
		"image": "https://media-cdn.tripadvisor.com/media/photo-s/0e/f9/7d/89/gf-sweet-potato-and-cauliflowe.jpg",
		"description": null,
		"latitude": 55.937554,
		"longitude": -3.225847,
		"street": "42-58 Angle Park Terrace",
		"postcode": "EH11 2JP",
		"city": "Edinburgh",
		"country": "United Kingdom",
		"phone": "+44 131 285 4993",
		"website": "http://www.caleysampleroom.co.uk",
		"facebook": null,
		"twitter": null,
		"instagram": null,
		"opening_hours": [
			{
				"day": "Sunday",
				"hours": "4:00 PM - 10:30 PM"
			},
			{
				"day": "Monday",
				"hours": "4:00 PM - 10:30 PM"
			},
			{
				"day": "Tuesday",
				"hours": "4:00 PM - 10:30 PM"
			},
			{
				"day": "Wednesday",
				"hours": "4:00 PM - 10:30 PM"
			},
			{
				"day": "Thursday",
				"hours": "4:00 PM - 10:30 PM"
			},
			{
				"day": "Friday",
				"hours": "9:00 AM - 10:30 PM"
			},
			{
				"day": "Saturday",
				"hours": "9:00 AM - 10:30 PM"
			}
		],
		"externalIds": {
			"safegraph": "22k-222@4hx-2ym-cwk",
			"foursquare": "4b3bd2b7f964a520e77b25e3",
			"tripadvisor": "752893"
		},
		"paying": false,
		"mapboxId": "dXJuOm1ieHBvaTo4Nzk3NzZjNi05OTJjLTQ0Y2EtYTczNy1mMGZlNWQ4MDc4Yjk",
		"userId": null,
		"createdAt": "2024-04-18T16:49:44.000Z"
	},
	{
		"id": "bocmkpudw2q565b",
		"slug": "caley-print-and-stationery-livingston-eh54-5dg",
		"name": "Caley Print and Stationery",
		"image": null,
		"description": null,
		"latitude": 55.910853,
		"longitude": -3.50063,
		"street": "14 Napier Square",
		"postcode": "EH54 5DG",
		"city": "Livingston",
		"country": "United Kingdom",
		"phone": "01506 437830",
		"website": null,
		"facebook": null,
		"twitter": null,
		"instagram": null,
		"opening_hours": null,
		"externalIds": {
			"foursquare": "a95741d190d24f3243d2a9c0"
		},
		"paying": false,
		"mapboxId": "dXJuOm1ieHBvaTpiYTBjMDJlNy0zYmJmLTQ0NzctOTRlYi0yYjU3YTM0Y2E2NjY",
		"userId": null,
		"createdAt": "2024-04-18T16:49:44.000Z"
	},
	{
		"id": "8sh39s3cvzia2e3",
		"slug": "caley-ocean-systems-glasgow-g51-2se",
		"name": "Caley Ocean Systems",
		"image": null,
		"description": null,
		"latitude": 55.855532,
		"longitude": -4.299496,
		"street": "375 Govan Rd",
		"postcode": "G51 2SE",
		"city": "Glasgow",
		"country": "United Kingdom",
		"phone": "0141 212 3444",
		"website": "http://www.caley.co.uk",
		"facebook": null,
		"twitter": null,
		"instagram": null,
		"opening_hours": null,
		"externalIds": {
			"foursquare": "dad42ae005164acfb74fe7ed"
		},
		"paying": false,
		"mapboxId": "dXJuOm1ieHBvaTo1MGMwNDJmOC03YjQxLTRkM2EtYTA4Yy0wMmM0ZTFmNDcxNTU",
		"userId": null,
		"createdAt": "2024-04-18T16:49:44.000Z"
	},
	{
		"id": "nefcx7b5cg1zqn9",
		"slug": "martins-edinburgh-eh10-4pq",
		"name": "Martin's",
		"image": "https://media-cdn.tripadvisor.com/media/photo-s/23/dd/fc/87/room-for-4.jpg",
		"description": null,
		"latitude": 55.938433,
		"longitude": -3.214999,
		"street": "5 Granville Terrace",
		"postcode": "EH10 4PQ",
		"city": "Edinburgh",
		"country": "United Kingdom",
		"phone": "+44 131 229 2086",
		"website": "http://www.martinsguesthouse.co.uk/",
		"facebook": null,
		"twitter": null,
		"instagram": null,
		"opening_hours": null,
		"externalIds": {
			"foursquare": "4bded7f0fe0e62b5f5fd0506",
			"tripadvisor": "1402864"
		},
		"paying": false,
		"mapboxId": "dXJuOm1ieHBvaTowZmM1NTFjMS03OGQxLTRjODYtYTA3Ni01MGIyZTlhMDg1Nzg",
		"userId": null,
		"createdAt": "2024-04-18T16:49:51.000Z"
	},
	{
		"id": "ebydr8zqi4i9h3s",
		"slug": "mariachi-edinburgh-eh1-2he",
		"name": "Mariachi",
		"image": "https://media-cdn.tripadvisor.com/media/photo-s/0f/d7/20/ca/yumm.jpg",
		"description": null,
		"latitude": 55.948615,
		"longitude": -3.193895,
		"street": "7 Victoria Street",
		"postcode": "EH1 2HE",
		"city": "Edinburgh",
		"country": "United Kingdom",
		"phone": "+44 131 623 0077",
		"website": "http://www.mariachi-restaurant.co.uk",
		"facebook": null,
		"twitter": null,
		"instagram": null,
		"opening_hours": [
			{
				"day": "Sunday",
				"hours": "5:00 PM - 9:30 PM"
			},
			{
				"day": "Monday",
				"hours": "5:00 PM - 9:30 PM"
			},
			{
				"day": "Tuesday",
				"hours": "5:00 PM - 9:30 PM"
			},
			{
				"day": "Wednesday",
				"hours": "5:00 PM - 9:30 PM"
			},
			{
				"day": "Thursday",
				"hours": "12:00 PM - 9:30 PM"
			},
			{
				"day": "Friday",
				"hours": "12:00 PM - 9:30 PM"
			},
			{
				"day": "Saturday",
				"hours": "5:00 PM - 9:30 PM"
			}
		],
		"externalIds": {
			"foursquare": "4bc78e8915a7ef3b82a279da",
			"safegraph": "22q-222@4hx-2yt-8qf",
			"tripadvisor": "911577"
		},
		"paying": false,
		"mapboxId": "dXJuOm1ieHBvaTphMzQ5OTczNC02YmU0LTRiZGUtYmMzMi1mZWM1OGViOTU2OWU",
		"userId": null,
		"createdAt": "2024-04-18T16:49:51.000Z"
	},
	{
		"id": "anju8ko53jrn3v8",
		"slug": "maria-luna-psychotherapy-edinburgh-eh2-3ns",
		"name": "Maria Luna-Psychotherapy",
		"image": null,
		"description": null,
		"latitude": 55.953951,
		"longitude": -3.203074,
		"street": "52 Queen St",
		"postcode": "EH2 3NS",
		"city": "Edinburgh",
		"country": "United Kingdom",
		"phone": "07554 765500",
		"website": "http://www.marialunapsychotherapy.co.uk",
		"facebook": null,
		"twitter": null,
		"instagram": null,
		"opening_hours": null,
		"externalIds": {
			"foursquare": "5c48b1d2ab42d9002c3cd68d"
		},
		"paying": false,
		"mapboxId": "dXJuOm1ieHBvaTpmNDVlMjM5Yy1kNzMxLTQwY2YtOWVlZC00YjVlMWU2OGM4ZWQ",
		"userId": null,
		"createdAt": "2024-04-18T16:49:51.000Z"
	},
	{
		"id": "f4vdj0q9sy6feyv",
		"slug": "marias-kitchen-edinburgh-eh7-4dx",
		"name": "Maria's Kitchen",
		"image": null,
		"description": null,
		"latitude": 55.961964,
		"longitude": -3.195177,
		"street": "46 Rodney Street",
		"postcode": "EH7 4DX",
		"city": "Edinburgh",
		"country": "United Kingdom",
		"phone": "+441315562466",
		"website": null,
		"facebook": null,
		"twitter": null,
		"instagram": null,
		"opening_hours": null,
		"externalIds": {
			"safegraph": "22x-223@4hx-2yv-5xq",
			"foursquare": "378bb5d1caf5421825d19d65"
		},
		"paying": false,
		"mapboxId": "dXJuOm1ieHBvaTo0NzNmODg1ZC05ODk3LTQ4NzUtOWQ2NS04M2Q0NGZiNWViMzE",
		"userId": null,
		"createdAt": "2024-04-18T16:49:51.000Z"
	},
	{
		"id": "0dxxxvtaeyd6xwx",
		"slug": "marias-edinburgh-eh6-8se",
		"name": "Maria's",
		"image": null,
		"description": null,
		"latitude": 55.963598,
		"longitude": -3.177691,
		"street": "371 Leith Walk",
		"postcode": "EH6 8SE",
		"city": "Edinburgh",
		"country": "United Kingdom",
		"phone": "07864 988695",
		"website": null,
		"facebook": null,
		"twitter": null,
		"instagram": null,
		"opening_hours": null,
		"externalIds": {
			"foursquare": "5723613e498e6edbbcc3941c"
		},
		"paying": false,
		"mapboxId": "dXJuOm1ieHBvaTpmMmFlODBlMS00ZWViLTQ0MTMtYjg4Yy1mZTVlYjlhODcxYjA",
		"userId": null,
		"createdAt": "2024-04-18T16:49:51.000Z"
	},
	{
		"id": "32qaqy0plv2zqzs",
		"slug": "makiachi-clothing-kelty-ky4-0bg",
		"name": "Makiachi Clothing",
		"image": null,
		"description": null,
		"latitude": 56.134626,
		"longitude": -3.37585,
		"street": "50 Bath St",
		"postcode": "KY4 0BG",
		"city": "Kelty",
		"country": "United Kingdom",
		"phone": "07541 968391",
		"website": null,
		"facebook": null,
		"twitter": null,
		"instagram": null,
		"opening_hours": null,
		"externalIds": {
			"foursquare": "a8f0b4ecbf1d4440e48af91c"
		},
		"paying": false,
		"mapboxId": "dXJuOm1ieHBvaTowYTQ0NDNmMi0xYzM1LTRiODMtODg4ZC1mNzE0NzViMjkwNWM",
		"userId": null,
		"createdAt": "2024-04-18T16:49:52.000Z"
	},
	{
		"id": "5ij4nex0koirei6",
		"slug": "best-western-hotel-mariacki-katowice-40-014",
		"name": "Best Western Hotel Mariacki",
		"image": "https://media-cdn.tripadvisor.com/media/photo-s/27/1c/89/13/best-western-hotel-mariacki.jpg",
		"description": null,
		"latitude": 50.25732,
		"longitude": 19.02585,
		"street": "Mariacka 15",
		"postcode": "40-014",
		"city": "Katowice",
		"country": "Poland",
		"phone": "+48 32-708-08-00",
		"website": "https://www.bestwestern.com/de_DE/book/hotel-details.81040.html?aff=BIO&iata=00171890&ssob=BLBWI0003G&cid=BLBWI0003G:yext:website:81040",
		"facebook": null,
		"twitter": null,
		"instagram": null,
		"opening_hours": null,
		"externalIds": {
			"tripadvisor": "12539777",
			"safegraph": "zzy-222@4xv-gy4-389",
			"foursquare": "5916a0ec6bd36b0dc90a2dae"
		},
		"paying": false,
		"mapboxId": "dXJuOm1ieHBvaTpiNjc0YjU3OC1jMjY1LTQxMTctYThjMy02OWY4N2QwNmI4ODc",
		"userId": null,
		"createdAt": "2024-04-18T16:49:52.000Z"
	},
	{
		"id": "sbdi33ry467ujah",
		"slug": "mariachis-mexican-restaurant-turlock-95382",
		"name": "Mariachi's Mexican Restaurant",
		"image": "https://media-cdn.tripadvisor.com/media/photo-s/16/57/58/d3/photo0jpg.jpg",
		"description": null,
		"latitude": 37.51792,
		"longitude": -120.84903,
		"street": "2669 Geer Rd",
		"postcode": "95382",
		"city": "Turlock",
		"country": "United States",
		"phone": "+1 209-632-7662",
		"website": "http://mariachismexicanrestaurant.com",
		"facebook": null,
		"twitter": null,
		"instagram": null,
		"opening_hours": [
			{
				"day": "Sunday",
				"hours": "11:00 AM - 9:00 PM"
			},
			{
				"day": "Monday",
				"hours": "11:00 AM - 9:00 PM"
			},
			{
				"day": "Tuesday",
				"hours": "11:00 AM - 9:00 PM"
			},
			{
				"day": "Wednesday",
				"hours": "11:00 AM - 9:00 PM"
			},
			{
				"day": "Thursday",
				"hours": "11:00 AM - 10:00 PM"
			},
			{
				"day": "Friday",
				"hours": "11:00 AM - 10:00 PM"
			},
			{
				"day": "Saturday",
				"hours": "11:00 AM - 9:00 PM"
			}
		],
		"externalIds": {
			"tripadvisor": "823460",
			"safegraph": "226-222@5vh-yc3-8vz",
			"foursquare": "4db5ccd20437fa536a48f18a"
		},
		"paying": false,
		"mapboxId": "dXJuOm1ieHBvaTo1NDgzYTRhNS03ZjEwLTQwYjYtYmE0YS04MmI1Y2E4YmI4ZjQ",
		"userId": null,
		"createdAt": "2024-04-18T16:49:52.000Z"
	},
	{
		"id": "axwo71mus30yq5n",
		"slug": "mariachi-restaurant-rehoboth-beach-19971",
		"name": "Mariachi Restaurant",
		"image": "https://media-cdn.tripadvisor.com/media/photo-f/01/e5/30/8f/seafood-fajitas-at-mariachi.jpg",
		"description": null,
		"latitude": 38.715556,
		"longitude": -75.077392,
		"street": "14 Wilmington Ave",
		"postcode": "19971",
		"city": "Rehoboth Beach",
		"country": "United States",
		"phone": "+1 302-227-0115",
		"website": "http://mariachirehobothde.com/",
		"facebook": null,
		"twitter": null,
		"instagram": null,
		"opening_hours": [
			{
				"day": "Sunday",
				"hours": "11:00 AM - 9:00 PM"
			},
			{
				"day": "Monday",
				"hours": "11:00 AM - 9:00 PM"
			},
			{
				"day": "Tuesday",
				"hours": "11:00 AM - 9:00 PM"
			},
			{
				"day": "Wednesday",
				"hours": "11:00 AM - 9:00 PM"
			},
			{
				"day": "Thursday",
				"hours": "11:00 AM - 9:30 PM"
			},
			{
				"day": "Friday",
				"hours": "11:00 AM - 9:30 PM"
			},
			{
				"day": "Saturday",
				"hours": "11:00 AM - 9:00 PM"
			}
		],
		"externalIds": {
			"foursquare": "4bae395ef964a520aa943be3",
			"safegraph": "224-222@63s-jyp-5j9",
			"tripadvisor": "1017610"
		},
		"paying": false,
		"mapboxId": "dXJuOm1ieHBvaToxZGNmZTY4MC02MmNlLTQ4NWYtYWM2ZS1hZDIyZDdiNjgzZjA",
		"userId": null,
		"createdAt": "2024-04-18T16:49:52.000Z"
	},
	{
		"id": "bbihs1mrnk4h8wz",
		"slug": "marine-north-berwick-north-berwick-eh39-4lz",
		"name": "Marine North Berwick",
		"image": "https://media-cdn.tripadvisor.com/media/photo-s/2a/f5/63/58/caption.jpg",
		"description": null,
		"latitude": 56.059453,
		"longitude": -2.738558,
		"street": "18 Cromwell Road",
		"postcode": "EH39 4LZ",
		"city": "North Berwick",
		"country": "United Kingdom",
		"phone": "+44 344 879 9130",
		"website": "https://marineandlawn.com/marinenorthberwick/",
		"facebook": null,
		"twitter": null,
		"instagram": null,
		"opening_hours": null,
		"externalIds": {
			"foursquare": "4bcf13040ffdce723239b2c0",
			"safegraph": "224-222@4hx-4h9-xwk",
			"tripadvisor": "280882"
		},
		"paying": false,
		"mapboxId": "dXJuOm1ieHBvaTo1NGMzZTM2OC0xODhiLTRlMWItYjFhMS0wYTg4NzZmOTgzMDc",
		"userId": null,
		"createdAt": "2024-04-18T16:49:52.000Z"
	},
	{
		"id": "shd6529izcc9im6",
		"slug": "the-caley-picture-house-edinburgh-eh1-2dj",
		"name": "The Caley Picture House",
		"image": "https://media-cdn.tripadvisor.com/media/photo-s/10/be/91/d8/the-caley-picture-house.jpg",
		"description": null,
		"latitude": 55.948338,
		"longitude": -3.206096,
		"street": "31 Lothian Road JD Wetherspoon",
		"postcode": "EH1 2DJ",
		"city": "Edinburgh",
		"country": "United Kingdom",
		"phone": "+44 131 656 0752",
		"website": "http://www.jdwetherspoon.com/pubs/all-pubs/scotland/edinburgh/the-caley-picture-house",
		"facebook": null,
		"twitter": null,
		"instagram": null,
		"opening_hours": [
			{
				"day": "Sunday",
				"hours": "8:00 AM - 1:00 AM"
			},
			{
				"day": "Monday",
				"hours": "8:00 AM - 1:00 AM"
			},
			{
				"day": "Tuesday",
				"hours": "8:00 AM - 1:00 AM"
			},
			{
				"day": "Wednesday",
				"hours": "8:00 AM - 1:00 AM"
			},
			{
				"day": "Thursday",
				"hours": "8:00 AM - 1:00 AM"
			},
			{
				"day": "Friday",
				"hours": "8:00 AM - 1:00 AM"
			},
			{
				"day": "Saturday",
				"hours": "8:00 AM - 1:00 AM"
			}
		],
		"externalIds": {
			"safegraph": "zzw-222@4hx-2yt-jqf",
			"tripadvisor": "11948837",
			"foursquare": "58554816109dfe3142ae55cc"
		},
		"paying": false,
		"mapboxId": "dXJuOm1ieHBvaTphMGE4MDdjNS1jM2U2LTQ4YzQtODBjNy1lZTc3ZjJmNDQ3Mzc",
		"userId": null,
		"createdAt": "2024-04-18T16:50:02.000Z"
	},
	{
		"id": "to8de8ubz2tjxzl",
		"slug": "caley-a-lombardo-crnp-pittsburgh-15224",
		"name": "Caley A Lombardo CRNP",
		"image": null,
		"description": null,
		"latitude": 40.463235,
		"longitude": -79.948109,
		"street": "4727 Friendship Ave",
		"postcode": "15224",
		"city": "Pittsburgh",
		"country": "United States",
		"phone": "+14122355881",
		"website": null,
		"facebook": null,
		"twitter": null,
		"instagram": null,
		"opening_hours": null,
		"externalIds": {
			"safegraph": "zzw-223@63d-6zf-y9z"
		},
		"paying": false,
		"mapboxId": "dXJuOm1ieHBvaTo0YmQ2M2U2OC1hMTJjLTQ3MDYtYTAzMC0xZWFhNDRkMWMzY2Q",
		"userId": null,
		"createdAt": "2024-04-18T16:50:02.000Z"
	},
	{
		"id": "cupm4i4m0voypta",
		"slug": "caley-dougherty-fnp-pittsford-14534",
		"name": "Caley Dougherty Fnp",
		"image": null,
		"description": null,
		"latitude": 43.058985,
		"longitude": -77.46851,
		"street": "141 Sullys Trl Ste 11",
		"postcode": "14534",
		"city": "Pittsford",
		"country": "United States",
		"phone": "+15853815800",
		"website": "http://www.comprehensivedermatologyofrochester.com/caley-dougherty",
		"facebook": null,
		"twitter": null,
		"instagram": null,
		"opening_hours": null,
		"externalIds": {
			"foursquare": "84068a2968b84ab11ce3e9f4",
			"safegraph": "22m-225@665-9cp-gff"
		},
		"paying": false,
		"mapboxId": "dXJuOm1ieHBvaTo2ZmVhZDYyYi00ZGU5LTQwODQtOTczNy00MGU3ZDZlMTlmYTI",
		"userId": null,
		"createdAt": "2024-04-18T16:50:02.000Z"
	},
	{
		"id": "umkayz945n2aj62",
		"slug": "wekenmann-caley-ann-wekenmann-caley-ann-niagara-falls-14301",
		"name": "Wekenmann Caley Ann - Wekenmann, Caley Ann",
		"image": null,
		"description": null,
		"latitude": 43.095487,
		"longitude": -79.033167,
		"street": "2400 Pine Ave",
		"postcode": "14301",
		"city": "Niagara Falls",
		"country": "United States",
		"phone": "+17165051060",
		"website": null,
		"facebook": null,
		"twitter": null,
		"instagram": null,
		"opening_hours": null,
		"externalIds": {
			"foursquare": "3c4284f1a7bb4c9d6a368610",
			"safegraph": "22c-22d@665-tsg-wp9"
		},
		"paying": false,
		"mapboxId": "dXJuOm1ieHBvaTo5ZGQ5YTAzZi1iOWI0LTRkM2YtOTY3OC00ZjQyMTQ5MDllNGE",
		"userId": null,
		"createdAt": "2024-04-18T16:50:02.000Z"
	},
	{
		"id": "ylye05xcb19bwo9",
		"slug": "the-booking-office-edinburgh-eh1-1bq",
		"name": "The Booking Office",
		"image": "https://media-cdn.tripadvisor.com/media/photo-s/0d/b0/81/50/photo1jpg.jpg",
		"description": null,
		"latitude": 55.952087,
		"longitude": -3.1919,
		"street": "17 Waverley Bridge",
		"postcode": "EH1 1BQ",
		"city": "Edinburgh",
		"country": "United Kingdom",
		"phone": "+44 131 558 1003",
		"website": "http://www.jdwetherspoon.com/pubs/all-pubs/scotland/edinburgh/booking-office-edinburgh",
		"facebook": null,
		"twitter": null,
		"instagram": null,
		"opening_hours": [
			{
				"day": "Sunday",
				"hours": "6:00 AM - 12:00 AM"
			},
			{
				"day": "Monday",
				"hours": "6:00 AM - 12:00 AM"
			},
			{
				"day": "Tuesday",
				"hours": "6:00 AM - 12:00 AM"
			},
			{
				"day": "Wednesday",
				"hours": "6:00 AM - 12:00 AM"
			},
			{
				"day": "Thursday",
				"hours": "6:00 AM - 12:00 AM"
			},
			{
				"day": "Friday",
				"hours": "6:00 AM - 1:00 AM"
			},
			{
				"day": "Saturday",
				"hours": "6:00 AM - 1:00 AM"
			}
		],
		"externalIds": {
			"tripadvisor": "10319848",
			"foursquare": "576191fb498e95975b581854",
			"safegraph": "zzy-225@4hx-2ys-y35"
		},
		"paying": false,
		"mapboxId": "dXJuOm1ieHBvaToxNDZhMTE4OC1jNjU2LTQwNjYtOTllZC1iZGEyM2FmOWM4Mjc",
		"userId": null,
		"createdAt": "2024-04-18T16:50:10.000Z"
	},
	{
		"id": "yhl0ufoc8k247x6",
		"slug": "the-booking-bureau-edinburgh-eh4-3rx",
		"name": "The Booking Bureau",
		"image": null,
		"description": null,
		"latitude": 55.960179,
		"longitude": -3.268219,
		"street": "10 March Gait",
		"postcode": "EH4 3RX",
		"city": "Edinburgh",
		"country": "United Kingdom",
		"phone": "0131 339 5578",
		"website": "http://www.youcanbookit.co.uk",
		"facebook": null,
		"twitter": null,
		"instagram": null,
		"opening_hours": null,
		"externalIds": {
			"foursquare": "2f90f179dc55405bf434f071"
		},
		"paying": false,
		"mapboxId": "dXJuOm1ieHBvaTo4YjdmZWIwZi1lMDRkLTQ3YWItODVmYy1lN2M4MzE0YWJkMDE",
		"userId": null,
		"createdAt": "2024-04-18T16:50:10.000Z"
	},
	{
		"id": "pazh39j9937r1bt",
		"slug": "the-boozy-beaver-edinburgh-eh3-7pr",
		"name": "The Boozy Beaver",
		"image": "https://media-cdn.tripadvisor.com/media/photo-s/24/2f/0b/35/the-boozy-beaver-logo.jpg",
		"description": null,
		"latitude": 55.951364,
		"longitude": -3.211538,
		"street": "13A Melville Place",
		"postcode": "EH3 7PR",
		"city": "Edinburgh",
		"country": "United Kingdom",
		"phone": "+44 131 203 3791",
		"website": "http://www.boozybeaver.com",
		"facebook": null,
		"twitter": null,
		"instagram": null,
		"opening_hours": [
			{
				"day": "Sunday",
				"hours": "9:00 AM - 1:00 AM"
			},
			{
				"day": "Monday",
				"hours": "9:00 AM - 1:00 AM"
			},
			{
				"day": "Tuesday",
				"hours": "9:00 AM - 1:00 AM"
			},
			{
				"day": "Wednesday",
				"hours": "9:00 AM - 1:00 AM"
			},
			{
				"day": "Thursday",
				"hours": "9:00 AM - 1:00 AM"
			},
			{
				"day": "Friday",
				"hours": "9:00 AM - 1:00 AM"
			},
			{
				"day": "Saturday",
				"hours": "9:00 AM - 1:00 AM"
			}
		],
		"externalIds": {
			"tripadvisor": "23699891"
		},
		"paying": false,
		"mapboxId": "dXJuOm1ieHBvaTo3Mzg4OGQ0OS1kOWZlLTQ0ZTUtODMyNi1kODNiYjlmNDJmYWI",
		"userId": null,
		"createdAt": "2024-04-18T16:50:10.000Z"
	},
	{
		"id": "ouz65gvi6lt5db0",
		"slug": "the-boozy-cow-edinburgh-eh2-2ey",
		"name": "The Boozy Cow",
		"image": "https://media-cdn.tripadvisor.com/media/photo-s/07/95/51/f1/the-boozy-cow.jpg",
		"description": null,
		"latitude": 55.952156,
		"longitude": -3.199772,
		"street": "17 Frederick Street",
		"postcode": "EH2 2EY",
		"city": "Edinburgh",
		"country": "United Kingdom",
		"phone": "+44 131 226 6055",
		"website": "http://www.facebook.com/BoozyCowEdinburgh",
		"facebook": null,
		"twitter": null,
		"instagram": null,
		"opening_hours": [
			{
				"day": "Sunday",
				"hours": "Closed"
			},
			{
				"day": "Monday",
				"hours": "Closed"
			},
			{
				"day": "Tuesday",
				"hours": "12:00 PM - 11:00 PM"
			},
			{
				"day": "Wednesday",
				"hours": "12:00 PM - 11:00 PM"
			},
			{
				"day": "Thursday",
				"hours": "12:00 PM - 11:00 PM"
			},
			{
				"day": "Friday",
				"hours": "12:00 PM - 11:00 PM"
			},
			{
				"day": "Saturday",
				"hours": "12:00 PM - 11:00 PM"
			}
		],
		"externalIds": {
			"tripadvisor": "7756915",
			"safegraph": "zzw-223@4hx-2yt-kxq"
		},
		"paying": false,
		"mapboxId": "dXJuOm1ieHBvaTo3MDIxYjdiOS05MmU0LTQzY2ItOWMwNi1lY2FmODRlZTc4Y2Y",
		"userId": null,
		"createdAt": "2024-04-18T16:50:10.000Z"
	},
	{
		"id": "ie5p335ergl4rgv",
		"slug": "ormelie-tavern-edinburgh-eh15-2et",
		"name": "Ormelie Tavern",
		"image": "https://media-cdn.tripadvisor.com/media/photo-s/0a/a6/97/c6/ormelie-tavern.jpg",
		"description": null,
		"latitude": 55.949131,
		"longitude": -3.098447,
		"street": "44 Joppa Road",
		"postcode": "EH15 2ET",
		"city": "Edinburgh",
		"country": "United Kingdom",
		"phone": "+44 131 669 3323",
		"website": "https://www.ormelietavern.co.uk/",
		"facebook": null,
		"twitter": null,
		"instagram": null,
		"opening_hours": [
			{
				"day": "Sunday",
				"hours": "12:00 PM - 11:00 PM"
			},
			{
				"day": "Monday",
				"hours": "12:00 PM - 11:00 PM"
			},
			{
				"day": "Tuesday",
				"hours": "12:00 PM - 11:00 PM"
			},
			{
				"day": "Wednesday",
				"hours": "12:00 PM - 11:00 PM"
			},
			{
				"day": "Thursday",
				"hours": "12:00 PM - 1:00 AM"
			},
			{
				"day": "Friday",
				"hours": "12:00 PM - 1:00 AM"
			},
			{
				"day": "Saturday",
				"hours": "12:00 PM - 11:00 PM"
			}
		],
		"externalIds": {
			"tripadvisor": "8558888",
			"safegraph": "223-222@4hw-z4t-94v",
			"foursquare": "4df680a1b0fba21ee54c455f"
		},
		"paying": false,
		"mapboxId": "dXJuOm1ieHBvaTo1MmQ4MDJkMC0wOWZkLTRjNGItYjExMS0yZDQxZjQ1YmRmOGE",
		"userId": null,
		"createdAt": "2024-04-18T16:50:17.000Z"
	},
	{
		"id": "t03iuiqle27qiir",
		"slug": "ormus-burntisland-ky3-0sh",
		"name": "Ormus",
		"image": "https://media-cdn.tripadvisor.com/media/photo-s/29/cd/d1/a8/ceramics-by-elektra-kamoutsis.jpg",
		"description": null,
		"latitude": 56.053711,
		"longitude": -3.301711,
		"street": "33 High Street",
		"postcode": "KY3 0SH",
		"city": "Burntisland",
		"country": "United Kingdom",
		"phone": "+44 1383 860111",
		"website": "www.shop-ormus.co.uk",
		"facebook": null,
		"twitter": null,
		"instagram": null,
		"opening_hours": [
			{
				"day": "Sunday",
				"hours": "Closed"
			},
			{
				"day": "Monday",
				"hours": "Closed"
			},
			{
				"day": "Tuesday",
				"hours": "Closed"
			},
			{
				"day": "Wednesday",
				"hours": "10:00 AM - 4:00 PM"
			},
			{
				"day": "Thursday",
				"hours": "10:00 AM - 4:00 PM"
			},
			{
				"day": "Friday",
				"hours": "10:00 AM - 4:00 PM"
			},
			{
				"day": "Saturday",
				"hours": "11:00 AM - 3:00 PM"
			}
		],
		"externalIds": {
			"tripadvisor": "26335396"
		},
		"paying": false,
		"mapboxId": "dXJuOm1ieHBvaTpjNDdkNDcwMy1iOGFmLTQyZWQtYjc3My0yMGJiNWYyNTlmNjU",
		"userId": null,
		"createdAt": "2024-04-18T16:50:17.000Z"
	},
	{
		"id": "x0w1esqpl2hznvq",
		"slug": "david-ormerod-hearing-centres-st-andrews-ky16-9ur",
		"name": "David Ormerod Hearing Centres",
		"image": null,
		"description": null,
		"latitude": 56.339796,
		"longitude": -2.798129,
		"street": "9 Bell St",
		"postcode": "KY16 9UR",
		"city": "St Andrews",
		"country": "United Kingdom",
		"phone": "01334 467948",
		"website": null,
		"facebook": null,
		"twitter": null,
		"instagram": null,
		"opening_hours": null,
		"externalIds": {
			"foursquare": "e98f7bfbea5d49d739e005d1"
		},
		"paying": false,
		"mapboxId": "dXJuOm1ieHBvaTpmYTA4ZDRkOC1kZWRhLTQyYzUtOThhZC03OWNmZWQ2MTllZTI",
		"userId": null,
		"createdAt": "2024-04-18T16:50:17.000Z"
	},
	{
		"id": "5ltglo08iyi8ns5",
		"slug": "orwell-and-portmoak-parish-church-kinross-ky13-9xa",
		"name": "Orwell and Portmoak Parish Church",
		"image": null,
		"description": null,
		"latitude": 56.226165,
		"longitude": -3.420314,
		"street": "29 South St",
		"postcode": "KY13 9XA",
		"city": "Kinross",
		"country": "United Kingdom",
		"phone": "01577 861200",
		"website": "http://www.orwellportmoakchurch.org.uk",
		"facebook": null,
		"twitter": null,
		"instagram": null,
		"opening_hours": null,
		"externalIds": {
			"safegraph": "zzy-226@4hw-xqm-vmk",
			"foursquare": "dcf81c6fa6624e7b2a506a84"
		},
		"paying": false,
		"mapboxId": "dXJuOm1ieHBvaTpkMmY3YjZiMi01MGY2LTQ2MzQtYjg0ZS04N2ExNTVlNjg1NmI",
		"userId": null,
		"createdAt": "2024-04-18T16:50:17.000Z"
	},
	{
		"id": "tbbws297d14984q",
		"slug": "ormlie-taxis-cupar-ky14-7dd",
		"name": "Ormlie Taxis",
		"image": null,
		"description": null,
		"latitude": 56.292045,
		"longitude": -3.227259,
		"street": "17 Cupar Rd",
		"postcode": "KY14 7DD",
		"city": "Cupar",
		"country": "United Kingdom",
		"phone": "01847 893434",
		"website": "http://www.ormlietaxis.com",
		"facebook": null,
		"twitter": null,
		"instagram": null,
		"opening_hours": null,
		"externalIds": {
			"foursquare": "cea582255d3f48419dcd5843"
		},
		"paying": false,
		"mapboxId": "dXJuOm1ieHBvaTpiNzFhZGViMy1kNTBhLTQ1MjAtYWRiZC00ZmIwN2MwYjZiNzc",
		"userId": null,
		"createdAt": "2024-04-18T16:50:18.000Z"
	},
	{
		"id": "1bz9nwnmrzkpbyl",
		"slug": "cabinet-davocats-ormelie-claude-paris-75018",
		"name": "Cabinet d'Avocats Ormelie Claude",
		"image": null,
		"description": null,
		"latitude": 48.894253,
		"longitude": 2.349188,
		"street": "133 Rue De Clignancourt",
		"postcode": "75018",
		"city": "Paris",
		"country": "France",
		"phone": null,
		"website": null,
		"facebook": null,
		"twitter": null,
		"instagram": null,
		"opening_hours": null,
		"externalIds": {
			"safegraph": "zzy-224@53v-7xk-vzz",
			"foursquare": "13ea57e9e9df4defa862e5a6"
		},
		"paying": false,
		"mapboxId": "dXJuOm1ieHBvaTo3NmJlNDk4NS05YzkwLTQ0YmMtOGVkNS02NzRkNDgyYWQ1OGU",
		"userId": null,
		"createdAt": "2024-04-18T16:50:18.000Z"
	},
	{
		"id": "fhp2sxn8gmmbrjh",
		"slug": "claude-ormlie-paris-75018",
		"name": "Claude Ormélie",
		"image": null,
		"description": null,
		"latitude": 48.894254,
		"longitude": 2.349126,
		"street": "133 rue de Clignancourt",
		"postcode": "75018",
		"city": "Paris",
		"country": "France",
		"phone": "01 43 06 16 64",
		"website": "http://www.avocats-ormelieclaude.com",
		"facebook": null,
		"twitter": null,
		"instagram": null,
		"opening_hours": null,
		"externalIds": {
			"foursquare": "de92ec4b2c8440ca0820e83c"
		},
		"paying": false,
		"mapboxId": "dXJuOm1ieHBvaTpjNGYzZWIyOS01YjZiLTQ4NGEtYmFjYi0wNWU3YjE1NmFkNzA",
		"userId": null,
		"createdAt": "2024-04-18T16:50:18.000Z"
	},
	{
		"id": "fsxy0su59158ju4",
		"slug": "c-franco-tradizioni-vini-ormelle-ormelle-31024",
		"name": "Cà Franco - Tradizioni & Vini, Ormelle",
		"image": null,
		"description": null,
		"latitude": 45.74747,
		"longitude": 12.40432,
		"street": "Via Saletto 17",
		"postcode": "31024",
		"city": "Ormelle",
		"country": "Italy",
		"phone": "+39 0422 851074",
		"website": "http://www.cafranco.com/home.php",
		"facebook": null,
		"twitter": null,
		"instagram": null,
		"opening_hours": null,
		"externalIds": {
			"tripadvisor": "21295109",
			"foursquare": "eebf30248a5277fe59496e73"
		},
		"paying": false,
		"mapboxId": "dXJuOm1ieHBvaTo0N2M1MTc0MC0zYmMzLTQ5MDctODdjNS0zZmMyZTE1OWIxMmQ",
		"userId": null,
		"createdAt": "2024-04-18T16:50:19.000Z"
	},
	{
		"id": "n4g6my35a3b5rqu",
		"slug": "gamle-ormelet-tjme-kunst-og-kultursenter-dorthe-endresen-tjme-3145",
		"name": "GAMLE ORMELET TJØME KUNST OG KULTURSENTER Dorthe Endresen",
		"image": null,
		"description": null,
		"latitude": 59.110042,
		"longitude": 10.409265,
		"street": "Fagerheimv 18",
		"postcode": "3145",
		"city": "Tjøme",
		"country": "Norway",
		"phone": null,
		"website": null,
		"facebook": null,
		"twitter": null,
		"instagram": null,
		"opening_hours": null,
		"externalIds": {
			"safegraph": "zzy-223@33k-pb3-mzf"
		},
		"paying": false,
		"mapboxId": "dXJuOm1ieHBvaTo0MGExMWUwYS1lOWU0LTQyNGEtOTE0NS02OTgwM2UyYWFiNmI",
		"userId": null,
		"createdAt": "2024-04-18T16:50:19.000Z"
	},
	{
		"id": "228tb0b2c1e05sw",
		"slug": "ornelie-photography-holly-springs-27540",
		"name": "Ornelie Photography",
		"image": null,
		"description": null,
		"latitude": 35.651786,
		"longitude": -78.823855,
		"street": "410 Caprano Dr",
		"postcode": "27540",
		"city": "Holly Springs",
		"country": "United States",
		"phone": "(919) 888-8457",
		"website": "http://www.ornelie-photography.com",
		"facebook": null,
		"twitter": null,
		"instagram": null,
		"opening_hours": null,
		"externalIds": {
			"foursquare": "494ca540a3f1404701cdf008"
		},
		"paying": false,
		"mapboxId": "dXJuOm1ieHBvaTo1MzA5M2U3Yy1lMGI4LTRmZTUtYjMwZS1hZWFjZjNiMDIwMGU",
		"userId": null,
		"createdAt": "2024-04-18T16:50:19.000Z"
	},
	{
		"id": "ysh4j0kcm5h0eo7",
		"slug": "alhambra-bar-edinburgh-eh6-8nx",
		"name": "Alhambra Bar",
		"image": "https://media-cdn.tripadvisor.com/media/photo-s/1c/43/3d/f4/sunny-leith.jpg",
		"description": null,
		"latitude": 55.966668,
		"longitude": -3.174896,
		"street": "227 Leith Walk",
		"postcode": "EH6 8NX",
		"city": "Edinburgh",
		"country": "United Kingdom",
		"phone": "0131 554 4868",
		"website": "http://www.thealhambrabar.co.uk/index",
		"facebook": null,
		"twitter": null,
		"instagram": null,
		"opening_hours": null,
		"externalIds": {
			"foursquare": "4c6047e312e5c92803ce1e4c",
			"tripadvisor": "21370178"
		},
		"paying": false,
		"mapboxId": "dXJuOm1ieHBvaTpmNzExN2YwNC0yMWIzLTQxNWEtODFmNS1kY2NlYjgwYzAxZWM",
		"userId": null,
		"createdAt": "2024-04-18T16:50:26.000Z"
	},
	{
		"id": "ttxaxynnek30fzu",
		"slug": "alhambra-bingo-dunfermline-ky12-7nx",
		"name": "Alhambra Bingo",
		"image": "https://media-cdn.tripadvisor.com/media/photo-s/0a/63/0a/28/alhambra-theatre.jpg",
		"description": null,
		"latitude": 56.069998,
		"longitude": -3.457968,
		"street": "33-35 Canmore Street",
		"postcode": "KY12 7NX",
		"city": "Dunfermline",
		"country": "United Kingdom",
		"phone": "+44 1383 740384",
		"website": "http://www.alhambradunfermline.com",
		"facebook": null,
		"twitter": null,
		"instagram": null,
		"opening_hours": null,
		"externalIds": {
			"tripadvisor": "4028807",
			"safegraph": "22q-222@4hx-2w3-3wk",
			"foursquare": "4bad11c9f964a5206d2a3be3"
		},
		"paying": false,
		"mapboxId": "dXJuOm1ieHBvaTpjMjFhOTY2Ny0wNWNjLTQxYTItOWFkMy03ZDQ4Y2E2NjM0OGY",
		"userId": null,
		"createdAt": "2024-04-18T16:50:26.000Z"
	},
	{
		"id": "12uluzildcdme6j",
		"slug": "gloria-jeans-gourmet-coffees-edinburgh-eh2-2dl",
		"name": "Gloria Jean's Gourmet Coffees",
		"image": null,
		"description": null,
		"latitude": 55.952582,
		"longitude": -3.19653,
		"street": "23 Hanover Street",
		"postcode": "EH2 2DL",
		"city": "Edinburgh",
		"country": "United Kingdom",
		"phone": null,
		"website": null,
		"facebook": null,
		"twitter": null,
		"instagram": null,
		"opening_hours": null,
		"externalIds": {
			"safegraph": "223-222@4hx-2ys-z9f"
		},
		"paying": false,
		"mapboxId": "dXJuOm1ieHBvaTowN2YxMjFiMC1kZTM4LTQ3OTMtOWM1OS05ODIyYzMzOTM2YzI",
		"userId": null,
		"createdAt": "2024-04-18T16:50:35.000Z"
	},
	{
		"id": "oslbk31etudwi0t",
		"slug": "global-executive-edinburgh-eh4-2wl",
		"name": "Global Executive",
		"image": null,
		"description": null,
		"latitude": 55.962861,
		"longitude": -3.247467,
		"street": "23 Groathill Loan",
		"postcode": "EH4 2WL",
		"city": "Edinburgh",
		"country": "United Kingdom",
		"phone": "0131 343 2864",
		"website": null,
		"facebook": null,
		"twitter": null,
		"instagram": null,
		"opening_hours": null,
		"externalIds": {
			"foursquare": "774daf162b3741dbda8d0c92"
		},
		"paying": false,
		"mapboxId": "dXJuOm1ieHBvaTozMWFlZGJiZS1iOThlLTQwNWMtOGM3Ny1iMzBjMjM3ZjFmMDQ",
		"userId": null,
		"createdAt": "2024-04-18T16:50:35.000Z"
	},
	{
		"id": "17mbcljww7u8nsu",
		"slug": "globetrotters-inn-edinburgh-eh4-5ep",
		"name": "Globetrotters Inn",
		"image": null,
		"description": null,
		"latitude": 55.978453,
		"longitude": -3.269196,
		"street": "46 Marine Drive",
		"postcode": "EH4 5EP",
		"city": "Edinburgh",
		"country": "United Kingdom",
		"phone": "+441313361030",
		"website": "http://www.globetrotterinns.com",
		"facebook": null,
		"twitter": null,
		"instagram": null,
		"opening_hours": null,
		"externalIds": {
			"foursquare": "4b05881df964a52074b222e3",
			"safegraph": "222-224@4hw-xsk-fpv"
		},
		"paying": false,
		"mapboxId": "dXJuOm1ieHBvaTo4YzE1MTQ4YS0yMWZiLTQzMGEtODcxMy1mMDQ5OTNmNDQwNTI",
		"userId": null,
		"createdAt": "2024-04-18T16:50:35.000Z"
	},
	{
		"id": "z3o40u5umc1zea3",
		"slug": "the-globe-bar-edinburgh-eh1-1th",
		"name": "The Globe Bar",
		"image": "https://media-cdn.tripadvisor.com/media/photo-s/1d/c1/0a/a7/caption.jpg",
		"description": null,
		"latitude": 55.949774,
		"longitude": -3.18684,
		"street": "13 Niddry Street",
		"postcode": "EH1 1TH",
		"city": "Edinburgh",
		"country": "United Kingdom",
		"phone": "+44 131 557 4670",
		"website": "http://www.globebar.co.uk/",
		"facebook": null,
		"twitter": null,
		"instagram": null,
		"opening_hours": [
			{
				"day": "Sunday",
				"hours": "12:00 PM - 10:30 PM"
			},
			{
				"day": "Monday",
				"hours": "12:00 PM - 10:30 PM"
			},
			{
				"day": "Tuesday",
				"hours": "12:00 PM - 10:30 PM"
			},
			{
				"day": "Wednesday",
				"hours": "12:00 PM - 10:30 PM"
			},
			{
				"day": "Thursday",
				"hours": "12:00 PM - 10:30 PM"
			},
			{
				"day": "Friday",
				"hours": "12:00 PM - 10:30 PM"
			},
			{
				"day": "Saturday",
				"hours": "12:00 PM - 10:30 PM"
			}
		],
		"externalIds": {
			"foursquare": "4b76ce45f964a52079602ee3",
			"safegraph": "zzy-22x@4hx-2yt-7kf",
			"tripadvisor": "10304176"
		},
		"paying": false,
		"mapboxId": "dXJuOm1ieHBvaTpkZmY5YzU1Mi1jY2RkLTRiMjctYjNlZS03YWQ3ZTI5MGYzMGI",
		"userId": null,
		"createdAt": "2024-04-18T16:50:35.000Z"
	},
	{
		"id": "owp20yk4e2aamrq",
		"slug": "globe-backpackers-exeter-ex2-4jd",
		"name": "Globe Backpackers",
		"image": "https://media-cdn.tripadvisor.com/media/photo-s/1d/e2/67/93/globe-backpackers.jpg",
		"description": null,
		"latitude": 50.719166,
		"longitude": -3.528339,
		"street": "71 Holloway Street",
		"postcode": "EX2 4JD",
		"city": "Exeter",
		"country": "United Kingdom",
		"phone": "+44 1392 215521",
		"website": "http://www.exeterbackpackers.co.uk/",
		"facebook": null,
		"twitter": null,
		"instagram": null,
		"opening_hours": null,
		"externalIds": {
			"safegraph": "232-222@4hp-m3t-ty9",
			"foursquare": "4c9a1de4b8e9224b34ee4a3d",
			"tripadvisor": "261715"
		},
		"paying": false,
		"mapboxId": "dXJuOm1ieHBvaTphOWU0MmI2Zi02OTZkLTQxM2YtYmZjNC1mNzU0NmMyNWNiYjQ",
		"userId": null,
		"createdAt": "2024-04-18T16:50:35.000Z"
	},
	{
		"id": "9uzr9t6qmwk0t7f",
		"slug": "globe-bar-johnstone-pa5-8ju",
		"name": "Globe Bar",
		"image": null,
		"description": null,
		"latitude": 55.835766,
		"longitude": -4.508325,
		"street": "13 High Street",
		"postcode": "PA5 8JU",
		"city": "Johnstone",
		"country": "United Kingdom",
		"phone": "+441505337874",
		"website": null,
		"facebook": null,
		"twitter": null,
		"instagram": null,
		"opening_hours": null,
		"externalIds": {
			"safegraph": "zzy-225@4gv-qyv-pqf",
			"foursquare": "e1c0705ffdbd44510733093a"
		},
		"paying": false,
		"mapboxId": "dXJuOm1ieHBvaToyNjYzY2YwNi0yN2Q2LTRkYzItYTM0YS02NTEyZGRkM2YxNzQ",
		"userId": null,
		"createdAt": "2024-04-18T16:50:35.000Z"
	},
	{
		"id": "2t1hmaqqgtjdqrr",
		"slug": "new-globe-bingo-social-club-johnstone-pa5-8ju",
		"name": "New Globe Bingo & Social Club",
		"image": null,
		"description": null,
		"latitude": 55.835704,
		"longitude": -4.507917,
		"street": "7 High Street",
		"postcode": "PA5 8JU",
		"city": "Johnstone",
		"country": "United Kingdom",
		"phone": "+441505322585",
		"website": null,
		"facebook": null,
		"twitter": null,
		"instagram": null,
		"opening_hours": null,
		"externalIds": {
			"foursquare": "547a2404498e5c0b576887fa",
			"safegraph": "22t-222@4gv-qyv-pqf"
		},
		"paying": false,
		"mapboxId": "dXJuOm1ieHBvaTo0ZmEwZGY4OC00MThiLTRiNjktYjg2Ny01YzQzNzk4ZDc1NmU",
		"userId": null,
		"createdAt": "2024-04-18T16:50:35.000Z"
	},
	{
		"id": "jdu63szhgcyq18c",
		"slug": "globe-bar-grill-spokane-99202",
		"name": "Globe Bar & Grill",
		"image": "https://media-cdn.tripadvisor.com/media/photo-s/1c/34/db/c7/ahi-tuna.jpg",
		"description": null,
		"latitude": 47.659401,
		"longitude": -117.410759,
		"street": "204 N Division St Ste C",
		"postcode": "99202",
		"city": "Spokane",
		"country": "United States",
		"phone": "+1 509-443-4014",
		"website": "http://globespokane.com/",
		"facebook": null,
		"twitter": null,
		"instagram": null,
		"opening_hours": [
			{
				"day": "Sunday",
				"hours": "11:00 AM - 12:00 AM"
			},
			{
				"day": "Monday",
				"hours": "11:00 AM - 12:00 AM"
			},
			{
				"day": "Tuesday",
				"hours": "11:00 AM - 12:00 AM"
			},
			{
				"day": "Wednesday",
				"hours": "11:00 AM - 12:00 AM"
			},
			{
				"day": "Thursday",
				"hours": "11:00 AM - 12:00 AM"
			},
			{
				"day": "Friday",
				"hours": "11:00 AM - 12:00 AM"
			},
			{
				"day": "Saturday",
				"hours": "10:00 AM - 12:00 AM"
			}
		],
		"externalIds": {
			"tripadvisor": "10370509",
			"safegraph": "226-222@3x5-6nc-pn5",
			"foursquare": "5d6895122c61ca000896d8ef"
		},
		"paying": false,
		"mapboxId": "dXJuOm1ieHBvaToxOGVhNjU3MS1jNjM4LTRhODgtYjUxOS1jZGUwZTIwZGYzNGQ",
		"userId": null,
		"createdAt": "2024-04-18T16:50:35.000Z"
	},
	{
		"id": "j78sb0ei1740mk3",
		"slug": "globe-bar-auckland-1010",
		"name": "Globe Bar",
		"image": null,
		"description": null,
		"latitude": -36.849795,
		"longitude": 174.76476,
		"street": "229 Queen St",
		"postcode": "1010",
		"city": "Auckland",
		"country": "New Zealand",
		"phone": "+6493573980",
		"website": "http://www.globebar.co.nz",
		"facebook": null,
		"twitter": null,
		"instagram": null,
		"opening_hours": null,
		"externalIds": {
			"safegraph": "zzy-22d@n84-d36-8gk",
			"foursquare": "4beabbc2b3352d7fd87f55d2"
		},
		"paying": false,
		"mapboxId": "dXJuOm1ieHBvaTo4MmY0YzM3Yi1mYTI1LTQwNDMtYTdiZC04ODBhMTExZGZjMWY",
		"userId": null,
		"createdAt": "2024-04-18T16:50:35.000Z"
	},
	{
		"id": "cqhess2mf1o92q2",
		"slug": "stramash-edinburgh-eh1-1jq",
		"name": "Stramash",
		"image": "https://media-cdn.tripadvisor.com/media/photo-s/13/db/f2/50/allman-brothers-appreciation.jpg",
		"description": null,
		"latitude": 55.948631,
		"longitude": -3.187693,
		"street": "207 Cowgate",
		"postcode": "EH1 1JQ",
		"city": "Edinburgh",
		"country": "United Kingdom",
		"phone": "+44 131 623 4353",
		"website": "http://stramashedinburgh.com/",
		"facebook": null,
		"twitter": null,
		"instagram": null,
		"opening_hours": [
			{
				"day": "Sunday",
				"hours": "5:00 PM - 3:00 AM"
			},
			{
				"day": "Monday",
				"hours": "5:00 PM - 3:00 AM"
			},
			{
				"day": "Tuesday",
				"hours": "5:00 PM - 3:00 AM"
			},
			{
				"day": "Wednesday",
				"hours": "5:00 PM - 3:00 AM"
			},
			{
				"day": "Thursday",
				"hours": "1:00 PM - 3:00 AM"
			},
			{
				"day": "Friday",
				"hours": "1:00 PM - 3:00 AM"
			},
			{
				"day": "Saturday",
				"hours": "1:00 PM - 3:00 AM"
			}
		],
		"externalIds": {
			"tripadvisor": "8695747",
			"foursquare": "56aaaa9d498e9e5b3908d250",
			"safegraph": "22h-223@4hx-2yt-789"
		},
		"paying": false,
		"mapboxId": "dXJuOm1ieHBvaTo4MDZjZjg2NS02MGExLTRjZWYtYWY3MC02N2E1MzgzYzM0MzU",
		"userId": null,
		"createdAt": "2024-04-18T16:50:42.000Z"
	},
	{
		"id": "wpme2cg5ph2752w",
		"slug": "eco-steam-valeting-edinburgh-eh6-5nx",
		"name": "Eco Steam Valeting",
		"image": null,
		"description": null,
		"latitude": 55.972124,
		"longitude": -3.184979,
		"street": "40 West Bowling Green Street",
		"postcode": "EH6 5NX",
		"city": "Edinburgh",
		"country": "United Kingdom",
		"phone": "+447527014854",
		"website": "http://www.ecosteamvaleting.co.uk",
		"facebook": null,
		"twitter": null,
		"instagram": null,
		"opening_hours": null,
		"externalIds": {
			"safegraph": "zzy-224@4hw-xrq-bp9",
			"foursquare": "4f200087e4b01d4098fd3ab3"
		},
		"paying": false,
		"mapboxId": "dXJuOm1ieHBvaTozOWZiYzA3Mi02YjJjLTQ5Y2ItOWViOS0wYTk4NmE5YTRmMGU",
		"userId": null,
		"createdAt": "2024-04-18T16:50:42.000Z"
	},
	{
		"id": "2hjl3jq0fsn2woq",
		"slug": "leith-steam-cleaning-edinburgh-eh6-7dp",
		"name": "Leith Steam Cleaning",
		"image": null,
		"description": null,
		"latitude": 55.974594,
		"longitude": -3.154052,
		"street": "2 Albert Road",
		"postcode": "EH6 7DP",
		"city": "Edinburgh",
		"country": "United Kingdom",
		"phone": "+441315534627",
		"website": null,
		"facebook": null,
		"twitter": null,
		"instagram": null,
		"opening_hours": null,
		"externalIds": {
			"safegraph": "222-224@4hw-xrm-b49"
		},
		"paying": false,
		"mapboxId": "dXJuOm1ieHBvaTo4YTEyMmQ2Yi1jZTJjLTRlNmUtYWM2NS1kYzc5NzVjOGEwZDA",
		"userId": null,
		"createdAt": "2024-04-18T16:50:42.000Z"
	},
	{
		"id": "do9b9c8imd9dtts",
		"slug": "strada-edinburgh-castle-street-edinburgh-eh2-3dn",
		"name": "Strada - Edinburgh Castle Street",
		"image": null,
		"description": null,
		"latitude": 55.951963,
		"longitude": -3.20302,
		"street": "15 Castle St",
		"postcode": "EH2 3DN",
		"city": "Edinburgh",
		"country": "United Kingdom",
		"phone": "020 7121 3200",
		"website": "http://www.strada.co.uk",
		"facebook": null,
		"twitter": null,
		"instagram": null,
		"opening_hours": null,
		"externalIds": {
			"foursquare": "e1b56a46b6d64f6bcda7ad4f"
		},
		"paying": false,
		"mapboxId": "dXJuOm1ieHBvaTpjMjE0M2FmYS02MTQ0LTRkZTQtYTMyOC0xN2MxOTM2ZDY0NTU",
		"userId": null,
		"createdAt": "2024-04-18T16:50:43.000Z"
	},
	{
		"id": "axja3pv999wm14e",
		"slug": "stravanan-off-sales-glasgow-g45-9ut",
		"name": "Stravanan Off Sales",
		"image": null,
		"description": null,
		"latitude": 55.798979,
		"longitude": -4.23827,
		"street": "119 Stravanan Road",
		"postcode": "G45 9UT",
		"city": "Glasgow",
		"country": "United Kingdom",
		"phone": "0141 634 3301",
		"website": null,
		"facebook": null,
		"twitter": null,
		"instagram": null,
		"opening_hours": null,
		"externalIds": {
			"foursquare": "15f230a6b1ad42e00ae5646c",
			"safegraph": "22b-224@4gv-vs3-f2k"
		},
		"paying": false,
		"mapboxId": "dXJuOm1ieHBvaTo5N2Y2MjUyZi04NjZiLTRlNjctYjUxNS0zMzY0YWE0NTA5ZmE",
		"userId": null,
		"createdAt": "2024-04-18T16:50:43.000Z"
	},
	{
		"id": "k39ovwn51g9an6k",
		"slug": "jollibee-edinburgh-eh2-4tg",
		"name": "Jollibee",
		"image": "https://media-cdn.tripadvisor.com/media/photo-s/22/a1/ca/0f/jollibee-edinburgh.jpg",
		"description": null,
		"latitude": 55.950507,
		"longitude": -3.206361,
		"street": "136 Princes Street",
		"postcode": "EH2 4TG",
		"city": "Edinburgh",
		"country": "United Kingdom",
		"phone": "+44 191 230 5937",
		"website": "http://www.jollibee.uk",
		"facebook": null,
		"twitter": null,
		"instagram": null,
		"opening_hours": [
			{
				"day": "Sunday",
				"hours": "10:00 AM - 10:00 PM"
			},
			{
				"day": "Monday",
				"hours": "10:00 AM - 10:00 PM"
			},
			{
				"day": "Tuesday",
				"hours": "10:00 AM - 10:00 PM"
			},
			{
				"day": "Wednesday",
				"hours": "10:00 AM - 10:00 PM"
			},
			{
				"day": "Thursday",
				"hours": "10:00 AM - 10:00 PM"
			},
			{
				"day": "Friday",
				"hours": "10:00 AM - 10:00 PM"
			},
			{
				"day": "Saturday",
				"hours": "10:00 AM - 10:00 PM"
			}
		],
		"externalIds": {
			"safegraph": "22q-222@4hx-2yt-mzf",
			"tripadvisor": "23915396",
			"foursquare": "6226572f88ffc276820ef692"
		},
		"paying": false,
		"mapboxId": "dXJuOm1ieHBvaTo1NWRlOWE1OS02ODdmLTQwMmItOTgwYi1lNDkxN2I4ZmUzNjg",
		"userId": null,
		"createdAt": "2024-04-18T16:50:51.000Z"
	},
	{
		"id": "3tbd4mq93jfmdh2",
		"slug": "jollyes-edinburgh-eh11-4df",
		"name": "Jollyes",
		"image": null,
		"description": null,
		"latitude": 55.925737,
		"longitude": -3.30638,
		"street": "29 Cultins Road Hermiston Gait Retail Park",
		"postcode": "EH11 4DF",
		"city": "Edinburgh",
		"country": "United Kingdom",
		"phone": "+441313859190",
		"website": null,
		"facebook": null,
		"twitter": null,
		"instagram": null,
		"opening_hours": null,
		"externalIds": {
			"safegraph": "zzy-226@4hx-2x5-xkf"
		},
		"paying": false,
		"mapboxId": "dXJuOm1ieHBvaTplZmI4ODdhYS00MWI1LTRkNjUtODg1ZC02MzYyZDllYjgwNWM",
		"userId": null,
		"createdAt": "2024-04-18T16:50:51.000Z"
	},
	{
		"id": "ne0ez6i7sd35mv8",
		"slug": "jolly-judge-edinburgh-eh1-2pb",
		"name": "Jolly Judge",
		"image": "https://media-cdn.tripadvisor.com/media/photo-s/29/d2/e9/e8/cheers-from-the-jolly.jpg",
		"description": null,
		"latitude": 55.949592,
		"longitude": -3.193922,
		"street": "7 James Court 493 Lawnmarket",
		"postcode": "EH1 2PB",
		"city": "Edinburgh",
		"country": "United Kingdom",
		"phone": "+44 131 225 2669",
		"website": "http://www.jollyjudge.co.uk",
		"facebook": null,
		"twitter": null,
		"instagram": null,
		"opening_hours": [
			{
				"day": "Sunday",
				"hours": "12:00 PM - 12:00 AM"
			},
			{
				"day": "Monday",
				"hours": "12:00 PM - 11:00 PM"
			},
			{
				"day": "Tuesday",
				"hours": "12:00 PM - 11:00 PM"
			},
			{
				"day": "Wednesday",
				"hours": "12:00 PM - 11:00 PM"
			},
			{
				"day": "Thursday",
				"hours": "12:00 PM - 12:00 AM"
			},
			{
				"day": "Friday",
				"hours": "12:00 PM - 12:00 AM"
			},
			{
				"day": "Saturday",
				"hours": "12:30 PM - 11:00 PM"
			}
		],
		"externalIds": {
			"tripadvisor": "188799",
			"safegraph": "22t-222@4hx-2yt-8gk",
			"foursquare": "4af4a0d6f964a52076f421e3"
		},
		"paying": false,
		"mapboxId": "dXJuOm1ieHBvaTo0MTJiYjcwMy02NGNhLTQwNTktOTJlMC1jZWI1N2Y4MjM3NmI",
		"userId": null,
		"createdAt": "2024-04-18T16:50:53.000Z"
	},
	{
		"id": "048eh0wqg6qhuux",
		"slug": "jolly-jigglers-kirkcaldy-ky1-4bs",
		"name": "Jolly Jigglers",
		"image": null,
		"description": null,
		"latitude": 56.173902,
		"longitude": -3.143074,
		"street": "7 Corthan Ct",
		"postcode": "KY1 4BS",
		"city": "Kirkcaldy",
		"country": "United Kingdom",
		"phone": "07511 956951",
		"website": null,
		"facebook": null,
		"twitter": null,
		"instagram": null,
		"opening_hours": null,
		"externalIds": {
			"foursquare": "9081ef0bc0c848618c915f9c"
		},
		"paying": false,
		"mapboxId": "dXJuOm1ieHBvaTowNWYwZWNlNS1iNzkwLTRiMzgtOTUwOS1iMTNmYjY2NDRkODU",
		"userId": null,
		"createdAt": "2024-04-18T16:50:53.000Z"
	},
	{
		"id": "ad9em8tg8kkeggi",
		"slug": "jolly-ristorante-pizzeria-edinburgh-eh7-4aa",
		"name": "Jolly Ristorante & Pizzeria",
		"image": null,
		"description": null,
		"latitude": 55.958512,
		"longitude": -3.183438,
		"street": "9 Elm Row",
		"postcode": "EH7 4AA",
		"city": "Edinburgh",
		"country": "United Kingdom",
		"phone": "+441315561588",
		"website": null,
		"facebook": null,
		"twitter": null,
		"instagram": null,
		"opening_hours": null,
		"externalIds": {
			"safegraph": "zzw-222@4hx-2yt-qcq"
		},
		"paying": false,
		"mapboxId": "dXJuOm1ieHBvaTpkNjM0NGY5Ni1hMWQyLTQ4ZjItYmFkYS1jYmQzYjY4NWM2NmE",
		"userId": null,
		"createdAt": "2024-04-18T16:50:53.000Z"
	},
	{
		"id": "h58cakj68dc90q6",
		"slug": "jolly-jug-amherst-14226",
		"name": "Jolly Jug",
		"image": null,
		"description": null,
		"latitude": 42.9758,
		"longitude": -78.82298,
		"street": "797 Niagara Falls Blvd",
		"postcode": "14226",
		"city": "Amherst",
		"country": "United States",
		"phone": "+1 716-834-3778",
		"website": "https://www.facebook.com/JollyJug14226/",
		"facebook": null,
		"twitter": null,
		"instagram": null,
		"opening_hours": [
			{
				"day": "Sunday",
				"hours": "8:00 AM - 3:00 AM"
			},
			{
				"day": "Monday",
				"hours": "8:00 AM - 3:00 AM"
			},
			{
				"day": "Tuesday",
				"hours": "8:00 AM - 3:00 AM"
			},
			{
				"day": "Wednesday",
				"hours": "8:00 AM - 3:00 AM"
			},
			{
				"day": "Thursday",
				"hours": "8:00 AM - 3:00 AM"
			},
			{
				"day": "Friday",
				"hours": "8:00 AM - 3:00 AM"
			},
			{
				"day": "Saturday",
				"hours": "10:00 AM - 3:00 AM"
			}
		],
		"externalIds": {
			"safegraph": "22s-222@665-tz7-2ff",
			"tripadvisor": "4695631",
			"foursquare": "4b6cdcc1f964a520df592ce3"
		},
		"paying": false,
		"mapboxId": "dXJuOm1ieHBvaToyODI5MDVjZi0wZTZkLTQ1NWUtYWNmZS1mNDc1Yjc0NjNjMDI",
		"userId": null,
		"createdAt": "2024-04-18T16:50:53.000Z"
	},
	{
		"id": "tb58laekzyik3v0",
		"slug": "jolly-jumps-jumping-castles-gold-coast-4214",
		"name": "Jolly Jumps Jumping Castles",
		"image": null,
		"description": null,
		"latitude": -27.934594,
		"longitude": 153.378948,
		"street": "38 Kendor St",
		"postcode": "4214",
		"city": "Gold Coast",
		"country": "Australia",
		"phone": "1300 130 011",
		"website": "https://www.jollyjumps.com.au/hire",
		"facebook": null,
		"twitter": null,
		"instagram": null,
		"opening_hours": null,
		"externalIds": {
			"foursquare": "57f337cd498e68a08ec380a7"
		},
		"paying": false,
		"mapboxId": "dXJuOm1ieHBvaTphZjUwNDQ3Yy1jNjdiLTQwMDktYTE3ZS01ZTY4MTY0MDNmZTQ",
		"userId": null,
		"createdAt": "2024-04-18T16:50:53.000Z"
	},
	{
		"id": "aefdrtq0rujh7u2",
		"slug": "jolly-judge-torquay-tq2-5qw",
		"name": "Jolly Judge",
		"image": null,
		"description": null,
		"latitude": 50.468573,
		"longitude": -3.533372,
		"street": "168 Union Street",
		"postcode": "TQ2 5QW",
		"city": "Torquay",
		"country": "United Kingdom",
		"phone": "+441803213848",
		"website": null,
		"facebook": null,
		"twitter": null,
		"instagram": null,
		"opening_hours": null,
		"externalIds": {
			"safegraph": "22b-222@4hp-myk-fvf",
			"foursquare": "4c4c559342b4d13a5ad6f07f"
		},
		"paying": false,
		"mapboxId": "dXJuOm1ieHBvaTowMDBmYThmYy03ZTdkLTQxY2YtODM2Yi0wZjQ4ZjRlMzdkNDM",
		"userId": null,
		"createdAt": "2024-04-18T16:50:53.000Z"
	},
	{
		"id": "b50578rgtzzak30",
		"slug": "margaret-jolly-homes-kuper-sothebys-international-realty-austin-78759",
		"name": "Margaret Jolly Homes Kuper Sotheby's International Realty",
		"image": null,
		"description": null,
		"latitude": 30.386703,
		"longitude": -97.760421,
		"street": "8911 N Capital of Texas Hwy",
		"postcode": "78759",
		"city": "Austin",
		"country": "United States",
		"phone": "+15124962281",
		"website": "http://georgialevin.kuperrealty.com",
		"facebook": null,
		"twitter": null,
		"instagram": null,
		"opening_hours": null,
		"externalIds": {
			"safegraph": "zzw-222@8t2-f42-kcq",
			"foursquare": "577d1fc54ab540f9198bb3a8"
		},
		"paying": false,
		"mapboxId": "dXJuOm1ieHBvaTo3MTlkZDc0Yi1hNzkxLTQzN2QtODZiOS1kZWI3MWU4ZDczYmI",
		"userId": null,
		"createdAt": "2024-04-18T16:50:53.000Z"
	},
	{
		"id": "zze4r27kys7yga1",
		"slug": "jolly-kids-chalmette-70043",
		"name": "Jolly Kid's",
		"image": null,
		"description": null,
		"latitude": 29.93932,
		"longitude": -89.955466,
		"street": "1004 E Judge Perez Dr",
		"postcode": "70043",
		"city": "Chalmette",
		"country": "United States",
		"phone": "(504) 682-2121",
		"website": null,
		"facebook": null,
		"twitter": null,
		"instagram": null,
		"opening_hours": null,
		"externalIds": {
			"foursquare": "8f76a99b0e744fac46528b09"
		},
		"paying": false,
		"mapboxId": "dXJuOm1ieHBvaTozYTBlMzA1Ni1kYWFlLTQ4YWUtOTc3MS03MjcxMTMyZGM2NWE",
		"userId": null,
		"createdAt": "2024-04-18T16:50:53.000Z"
	}
]
